"ShopID","ShopName","Address","Landmark","Area","City","Pincode","Latitude","Longitude","State","StartTime","EndTime","OpenMonday","OpenTuesday","OpenWednesday","OpenThursday","OpenFriday","OpenSaturday","OpenSunday","CheckOpen","StorePhoneAreaCode","StorePhoneNumber","MerchantID","ShopAddDate","MallFlag","ShopActive","ShopSource","ShopSourceValue","ShopAddedBy","ShopEditedBy","ShopLastEdited"
"11","Everygreen Eye Vision","Shop No 13, Nagardas Park","Near Old Nagardas Road Post Office","Andheri East","Mumbai","400069","19.1218","72.8505","Maharashtra","00:00:00","00:00:12","0","1","1","1","1","1","1",NULL,,,"971","2015-10-07","N",NULL,NULL,NULL,NULL,"Monish","2016-02-09 00:00:00"
"12","The Time Store","A-1, Ashish Bldg, Sahar Road, Opp. Agarkar Chowk","Near Railway Station","Andheri East","Mumbai","400069","19.1179","72.8482","Maharashtra","00:00:00","00:00:10","1","1","1","1","1","1","1",NULL,,,"972","2015-10-07","N",NULL,NULL,NULL,NULL,"Monish","2016-02-09 00:00:00"
"13","Global Fusion","Shop No 3, Ram Niketan building, Koldongri","Sahar Road","Andheri East","Mumbai","400069","19.111278","72.849886","Maharashtra","09:00:00","22:00:00","1","0","1","1","1","1","1",NULL,,,"973","2015-10-07","N",NULL,NULL,NULL,NULL,"Monish","2016-02-09 00:00:00"
"14","Naman Collection","Shop - 4, ram Niketan Building, Koldongri","Sahar Road","Andheri east","Mumbai","400069","19.111381","72.849875","Maharashtra","10:00:00","21:00:00","1","0","1","1","1","1","1",NULL,,,"976","2015-10-07","N",NULL,NULL,NULL,NULL,"Monish","2016-02-09 00:00:00"
"15","Wonder Living Furniture","Shop No 4 & 5, Gokul Arcade, A wing, Sahar Road","Near Garware Ployster","Vile Parle","Mumbai","400057","19.109963","72.851922","Maharashtra","11:30:00","21:00:00","1","0","1","1","1","1","1",NULL,,,"977","2015-10-07","N",NULL,NULL,NULL,NULL,NULL,NULL
"27","Divyam","opp-mukund hospital,Andheri Kurla Road","Andheri Kurla Road","J. B. Nagar","Mumbai","400059","19.1122169","72.8667273","Maharashtra","10:30:00","21:30:00","1","1","1","1","1","1","1",NULL,NULL,"02228365876","978","2015-10-08","N",NULL,NULL,NULL,NULL,NULL,NULL
"28","Divyam ","Shop No 4 Adarsh Society, Nehru Road,near-hdfc bank","opp. Sabari Hotel","Vile Parle East","Mumbai","400057","19.097731","72.848713","Maharashtra","10:30:00","21:30:00","1","1","1","1","1","1","1",NULL,NULL,"9323726665","978","2015-10-08","N",NULL,NULL,NULL,NULL,NULL,NULL
"29","Divyam","Shop No 22, Ganga Niwas,opp-icchaapurti hanuman temple , Link Road","Opp Ichapurti Hanuman Temple","Malad West ","Mumbai","400064","19.185046","72.835210","Maharashtra","11:00","22:00","1","1","1","1","1","1","1",NULL,NULL,"02228441235","978","2015-10-08","N",NULL,NULL,NULL,NULL,NULL,NULL
"30","Sambhav Electronics","Naseeb Manzil, Sahar Road, Koldongri","Sahar Road","Andheri East","Mumbai","400069","19.112905","72.848276","Maharashtra","11:00:00","21:30:00","1","0","1","1","1","1","1",NULL,NULL,"2226827445","979","2015-10-09","N",NULL,NULL,NULL,NULL,"Monish","2016-02-09 00:00:00"
"31","Maharashtra","6, Halwai Nagar, Koldongri","Sahar Road","Andheri East","Mumbai","400069","19.11081","72.850765","Maharashtra","09:00:00","21:30:00","1","1","1","1","1","1","1",NULL,NULL,"2226826867","980","2015-10-09","N",NULL,NULL,NULL,NULL,"Monish","2016-02-09 00:00:00"
"32","Excellence","Sajid Tower, S. V. Road","opp. Amboli Railway Crossing","Andheri West","Mumbai","400058","19.129407","72.847188","Maharashtra","10:00:00","22:00:00","1","1","1","1","1","1","1",NULL,NULL,"2226798786","981","2015-10-09","N",NULL,NULL,NULL,NULL,"Monish","2016-02-09 00:00:00"
"33","Better Home","Shop No. 2, Blesan Apartment, S. V. Road, Amboli Naka","Opp. Amboli Church","Andheri West","Mumbai","400058","19.127541","72.846785","Maharashtra","10:00:00","22:00:00","1","1","1","1","1","1","1",NULL,NULL,"976973735","982","2015-10-09","N",NULL,NULL,NULL,NULL,"Monish","2016-02-09 00:00:00"
"34","Reshma Furnishing & Mattresses","Shop No 5, S. V. Road","Nr. Amboli Naka Signal","Andheri West","Mumbai","400058","19.127724","72.846893","Maharashtra","10:00:00","21:00:00","1","1","1","1","1","1","1",NULL,NULL,"9821786286","983","2015-10-09","N",NULL,NULL,NULL,NULL,"Monish","2016-02-09 00:00:00"
"35","Sidrah Sales","All types of Bags, Hand Luggage, Soft Bag Packs, Haver Sack Bags, Travel Bags, Laptop Bags, Gym Bags, Office Bag, Leather Office Bags, Leather Laptop Bag and Ladies Purse","Opp.  Bhatia Classes","Andheri West","Mumbai","400058","19.122911","72.846349","Maharashtra","10:00:00","21:30:00","1","1","1","1","1","1","1",NULL,NULL,"8454997034","984","2015-10-09","N",NULL,NULL,NULL,NULL,"Monish","2016-02-09 00:00:00"
"36","Kanco","S. V. road","Near Post Office","Andheri West","Mumbai","400058","19.121466","72.84601","Maharashtra","10:30:00","21:30:00","1","1","1","1","1","1","1",NULL,NULL,"9820250555","985","2015-10-09","N",NULL,NULL,NULL,NULL,"Monish","2016-02-09 00:00:00"
"37","Mahalaxmi Collection","Shop No. 4 Thankar Building, S. V. Road, Andheri Naka","Under Metro Bridge","Andheri West","Mumbai","400058","19.121814","72.846073","Maharashtra","10:00:00","21:30:00","1","1","1","1","1","1","1",NULL,NULL,"768287491","986","2015-10-09","N",NULL,NULL,NULL,NULL,"Monish","2016-02-09 00:00:00"
"38","Bavlee","Old Nagardas Road","Old Nagardas Road","Andheri East","Mumbai","400069","19.120552","72.849435","Maharashtra","10:00:00","21:00:00","1","1","1","1","1","1","1",NULL,NULL,"2228353957","987","2015-10-10","N",NULL,NULL,NULL,NULL,"Monish","2016-02-09 00:00:00"
"39","Tribal Zone","3, Riyaz House, Irla Road","Irla Road","Vile Parle West","Mumbai","400056","19.108355","72.838588","Maharashtra","10:00:00","22:00:00","1","1","1","1","1","1","1",NULL,NULL,"02226713621","988","2015-10-10","N",NULL,NULL,NULL,NULL,NULL,NULL
"40","Prince","6, Arif Mansion","Irla Society Road","Vile Parle West","Mumbai","400056","19.108125","72.839718","Maharashtra","10:30:00","22:00:00","1","1","1","1","1","1","1",NULL,NULL,"02226716072","989","2015-10-10","N",NULL,NULL,NULL,NULL,NULL,NULL
"41","Apsara - The Mobile Shop","2/59, Alankar Bldg, Sagar Road, Nr. Railway Station","Opp. Better Home","Andheri East","Mumbai","400069","19.117483","72.84823","Maharashtra","10:00:00","22:00:00","1","1","1","1","1","1","1",NULL,NULL,"9004292958","990","2015-10-10","N",NULL,NULL,NULL,NULL,"Monish","2016-02-09 00:00:00"
"42","Momento","16-A, Kalpita Enclave, Sahar Road","Sahar Road","Andheri East","Mumbai","400069","19.112905","72.848276","Maharashtra","10:00:00","22:30:00","1","1","1","1","1","1","1",NULL,NULL,"9167909525","991","2015-10-10","N",NULL,NULL,NULL,NULL,"Monish","2016-02-09 00:00:00"
"43","Blush Salon","Shop No 2, Bhatt Building","Old Nagardas Road","Andheri East","Mumbai","400069","19.123874","72.85109","Maharashtra","10:30:00","21:00:00","1","1","1","1","1","1","1",NULL,NULL,"2228312669","992","2015-10-12","N",NULL,NULL,NULL,NULL,"Monish","2016-02-09 00:00:00"
"44","Blush Salon","Shop No 19, Satellite Garden Phase 2,","Film City Road","Goregaon East","Mumbai","400063","19.173426","72.874134","Maharashtra","10:30:00","21:00:00","1","1","1","1","1","1","1",NULL,NULL,"2228411982","992","2015-10-12","N",NULL,NULL,NULL,NULL,"Monish","2016-02-09 00:00:00"
"45","Awesome - unisex Salon","Shiv Ashish, S.V. Road","Near vijay Sales, Opp. Bank of Maharashtra","Andheri West","Mumbai","400058","19.11333","72.841947","Maharashtra","08:00:00","21:00:00","1","1","1","1","1","1","1",NULL,NULL,"2226280010","994","2015-10-12","N",NULL,NULL,NULL,NULL,"Monish","2016-02-09 00:00:00"
"46","Ujala Furnishing Center","E-11, Deepawali Building, Shop No. 3, S.V. Road","Near M.A. High School","Andheri West","Mumbai","400058","19.118034","72.844858","Maharashtra","11:00:00","21:00:00","1","1","1","1","1","1","1",NULL,NULL,"2226280634","995","2015-10-12","N",NULL,NULL,NULL,NULL,"Monish","2016-02-09 00:00:00"
"47","Jinal Designer Studio","Shop No 10/11, Madhav Nagar, S. V. Road","Next to BSES Sub. Stn","Andheri West","Mumbai","400058","19.1191","72.845248","Maharashtra","10:30:00","21:30:00","1","1","1","1","0","1","1",NULL,NULL,"2226288634","996","2015-10-12","N",NULL,NULL,NULL,NULL,"Monish","2016-02-09 00:00:00"
"48","Azka Collection","Shop No B/4, Super Market, Sakinaka","Opp. Maharashtra Weigh, below metro station","Andheri East","Mumbai","400072","19.10315","72.888228","Maharashtra","10:30:00","23:00:00","1","1","1","1","1","1","1",NULL,NULL,"970271114","997","2015-10-12","N",NULL,NULL,NULL,NULL,"Monish","2016-02-09 00:00:00"
"49","Concept - Fancy Hardware","Shop No. 7/8, Shah Apartment, Marol Maroshi Road, Near Temptation Hote","Behind SBI Bus Stop","Andheri East","Mumbai","400059","19.115459","72.879811","Maharashtra","10:00:00","20:00:00","0","1","1","1","1","1","1",NULL,NULL,"2229255047","998","2015-10-13","N",NULL,NULL,NULL,NULL,"Monish","2016-02-09 00:00:00"
"50","Jai Bhawani Jewelers","Plot No. 18-A, 14/15, Bhavni Nagar"," M. M. Road","Andheri East","Mumbai","400059","19.119916","72.88002","Maharashtra","09:30:00","21:30:00","1","0","1","1","1","1","1",NULL,NULL,"2229259274","999","2015-10-13","N",NULL,NULL,NULL,NULL,"Monish","2016-02-09 00:00:00"
"51","Morange Professional Salon","Shop No 2, Bamanpuri CHS, Kanti Nagar, J. B. Nagar","Opp. Gnaesh Mandir","Andheri East","Mumbai","400059","19.109026","72.86555","Maharashtra","10:00:00","22:00:00","1","1","1","1","1","1","1",NULL,NULL,"9820304859","1000","2015-10-13","N",NULL,NULL,NULL,NULL,"Monish","2016-02-09 00:00:00"
"52","Prem & Sons Family Shop","Shop No.5, Gulmohar Apts, Vijay Nagar,  Marol Maroshi Road, Marol","Opp. St. Vincent Palloti Church","Andheri East","Mumbai","400059","19.120965","72.879757","Maharashtra","10:00:00","22:00:00","1","1","1","1","1","1","1",NULL,NULL,"29205255","1001","2015-10-13","N",NULL,NULL,NULL,NULL,"Monish","2016-02-09 00:00:00"
"53","Choice Bakers & Fast Food","Asad Compound, Marol Pipe Line Bus stop","Opp. Mukund Hospital","Andheri East","Mumbai","400059","19.110792","72.872093","Maharashtra","10:00:00","22:00:00","1","1","1","1","1","1","1",NULL,NULL,"2228301746","1002","2015-10-13","N",NULL,NULL,NULL,NULL,"Monish","2016-02-09 00:00:00"
"54","Choice Center","5/5 Greenland Apartments, J. B. Nagar","Greenland Apartments","Andheri East","Mumbai","400059","19.110758","72.866676","Maharashtra","09:00:00","22:00:00","1","1","1","1","1","1","1",NULL,NULL,"2228342397","1003","2015-10-13","N",NULL,NULL,NULL,NULL,"Monish","2016-02-09 00:00:00"
"55","Sweetlime","Shop. No. 1, Jay Ganesh Society, J. B. Nagar","Opp. Monarch park","Andheri East","Mumbai","400059","19.1086","72.864762","Maharashtra","10:00:00","22:00:00","1","1","1","1","1","1","1",NULL,NULL,"9820304859","1004","2015-10-13","N",NULL,NULL,NULL,NULL,"Monish","2016-02-09 00:00:00"
"56","Chouhan Furnishing","Mastan Estate, Marol Maroshi Road, ","M.M. Road","Andheri East","Mumbai","400059","19.112482","72.879252","Maharashtra","09:00:00","21:00:00","1","0","1","1","1","1","1",NULL,NULL,"2229251273","1005","2015-10-16","N",NULL,NULL,NULL,NULL,"Monish","2016-02-09 00:00:00"
"57","Cantabil Retail India ","Shop No D-7, Mukund Nagar, C.H.S.L, Andheri Kurla Road, Marol Pipe Line","Near Mukund Hospital","Andheri East","Mumbai","400059","19.077389","72.917641","Maharashtra","11:00:00","21:30:00","1","1","1","1","1","1","1",NULL,NULL,"2228200274","1006","2015-10-16","N",NULL,NULL,NULL,NULL,"Monish","2016-02-09 00:00:00"
"58","Ruchira Jewelers","18/C/31, Bhavani Nagar Shopping Center, M.M. Road","Opp. Seven Hills Hospital","Andheri East","Mumbai","400059","19.111864","72.879028","Maharashtra","09:30:00","21:30:00","1","0","1","1","1","1","1",NULL,NULL,"22292011098","1007","2015-10-20","N",NULL,NULL,NULL,NULL,"Monish","2016-02-09 00:00:00"
"59","Neptune - Family Dining","Andheri Kurla Road, Marol","Below Marol Naka Metro Station","Andheri East","Mumbai","400059","19.117301","72.884039","Maharashtra","11:00:00","23:00:00","1","1","1","1","1","1","1",NULL,NULL,"7506712612","1008","2015-10-20","N",NULL,NULL,NULL,NULL,"Monish","2016-02-09 00:00:00"
"60","Classic Luggage","Shop No. 14, Pranik Chambers, Saki Vihar Road","Sakinanaka Junction","Andheri East","Mumbai","400072","19.114684","72.888993","Maharashtra","10:00:00","22:00:00","1","1","1","1","1","1","1",NULL,NULL,"2228576353","1009","2015-10-20","N",NULL,NULL,NULL,NULL,"Monish","2016-02-09 00:00:00"
"61","Gini & Jony","Saki Vikar Road","Saki Naka junction","Andheri East","Mumbai","400072","19.114684","72.888993","Maharashtra","10:30:00","21:30:00","1","1","1","1","1","1","1",NULL,NULL,"2228572858","1010","2015-10-20","N",NULL,NULL,NULL,NULL,"Monish","2016-02-09 00:00:00"
"62","Shubham Jewelers","72, 99, Galleria, Hiranandani gardens","Opp. ICICI ATM","Powai","Mumbai","400076","19.1193858","72.9116404","Maharashtra","09:30:00","20:30:00","1","1","1","1","1","1","1",NULL,NULL,"02225717170","1012","2015-10-20","N",NULL,NULL,NULL,NULL,NULL,NULL
"63","Shubham Jewelers","Shop no 2, Nahar Business Center, Chandivali Farm Road, Chandivali","Nahar","Andheri East","Mumbai","400072","19.114667","72.895123","Maharashtra","09:30:00","20:30:00","1","1","1","1","1","1","1",NULL,NULL,"2228572511","1012","2015-10-20","N",NULL,NULL,NULL,NULL,"Monish","2016-02-09 00:00:00"
"64","Ashraf Salon","Shop No A-8, Nahar Amrit Shakti Road,  Opp Lokmilan building, Chandivali","Nahar Shopping Complex","Andheri East","Mumbai","400072","19.118171","72.890492","Maharashtra","09:00:00","22:00:00","1","1","1","1","1","1","1",NULL,NULL,"2228574164","1013","2015-10-20","N",NULL,NULL,NULL,NULL,"Monish","2016-02-09 00:00:00"
"65","Mumbai Masala","Shop No 9, Shiv Om Complex, Chandivali","Near ICICI Bank","Andheri East","Mumbai","400072","19.118171","72.890492","Maharashtra","11:00:00","00:00:00","1","1","1","1","1","1","1",NULL,NULL,"7738873142","1014","2015-10-20","N",NULL,NULL,NULL,NULL,"Monish","2016-02-09 00:00:00"
"66","Red & Blue ","Shop No 8, Marol Maroshi Road","Opp. Seven Hills Hospital","Andheri East","Mumbai","400059","19.117093","72.88018","Maharashtra","09:30:00","22:30:00","1","1","1","1","1","1","1",NULL,NULL,"2229201773","1015","2015-10-20","N",NULL,NULL,NULL,NULL,"Monish","2016-02-09 00:00:00"
"67","Blush Salon & Spa","Shop No. 7/8, Abbas Manzil, CTS 605, Chakala Road","Chakala Road","Andheri East","Mumbai","400099","19.107906","72.858783","Maharashtra","10:00:00","22:00:00","1","1","1","1","1","1","1",NULL,NULL,"2228259470","1017","2015-10-20","N",NULL,NULL,NULL,NULL,"Monish","2016-02-09 00:00:00"
"68","Classic Furnishing & Mattreses","Plot No. 44, Shop No. 2, Tarun Bharat Society, Chakala","Tarun Bharat Society","Andheri East","Mumbai","400099","19.108089","72.861841","Maharashtra","10:00:00","22:00:00","1","0","1","1","1","1","1",NULL,NULL,"9821866182","1018","2015-10-20","N",NULL,NULL,NULL,NULL,"Monish","2016-02-09 00:00:00"
"70","Beauty Furnishing Foam Center","Gurushri Building, Plot No. 11, Shop No 3, Tarun Bharat Society, Chakala","Tarun Bharat Society","Andheri East","Mumbai","400099","19.107862","72.860449","Maharashtra","09:30:00","21:30:00","1","0","1","1","1","1","1",NULL,NULL,"2228312746","1019","2015-10-20","N",NULL,NULL,NULL,NULL,"Monish","2016-02-09 00:00:00"
"71","Paradise Furnishing","Darshan Classic Building, Shop No. 4, J.B. Nagar","Near Darshan Classic Buidling","Andheri East","Mumbai","400099","19.108089","72.861841","Maharashtra","09:00:00","21:00:00","1","0","1","1","1","1","1",NULL,NULL,"9867132990","1020","2015-10-20","N",NULL,NULL,NULL,NULL,"Monish","2016-02-09 00:00:00"
"72","Kala Mandir NX","Shop No. 8/9, Swami vivekanand Society, Chakala",,"Andheri East","Mumbai","400099","19.1154401","72.8316142","Maharashtra","10:00:00","21:00:00","1","0","1","1","1","1","1",NULL,NULL,"2228306824","1021","2015-10-20","N",NULL,NULL,NULL,NULL,"Monish","2016-02-09 00:00:00"
"73","Lucky Hardware Stores","1&2, Krishna Bhuvan, P.P. Road Andheri East","Opp. Sona Udyog","Andheri East","Mumbai","400069","19.1257390","72.8534100","Maharashtra","09:00:00","21:00:00","1","1","1","1","1","1","0",NULL,NULL,"2260609011","1022","2015-10-21","N",NULL,NULL,NULL,NULL,"Monish","2016-02-09 00:00:00"
"75","Classic Furnishing","Shreyas 113, J.P. Road","Opp. Navrang Talkies","Andheri West","Mumbai","400058","19.123676","72.843061","Maharashtra","10:00:00","21:00:00","1","1","1","1","1","1","1",NULL,NULL,"2226776178","1023","2015-10-21","N",NULL,NULL,NULL,NULL,"Monish","2016-02-09 00:00:00"
"76","Fashion House NX - Family Shop","Shop No 2 Kapoor Buildind J.P.Road","Near Navrang Cinema","Andheri West","Mumbai","400058","19.123352","72.84369","Maharashtra","10:30:00","21:30:00","1","1","1","1","0","1","1",NULL,NULL,"2226704149","1024","2015-10-21","N",NULL,NULL,NULL,NULL,"Monish","2016-02-09 00:00:00"
"77","Vision Tech optics & Contact Lens Clinic","2,Devi Ekveera Apartment","Old Nagardas Road","Andheri East","Mumbai","400069","19.120958","72.849968","Maharashtra","10:00:00","21:00:00","1","1","1","1","1","1","1",NULL,NULL,"226777688","1025","2015-10-21","N",NULL,NULL,NULL,NULL,"Monish","2016-02-09 00:00:00"
"78","All Right Shoes","Shop No 40-A/1,Sunderji Bhagwanji Bhatt Building","Old Nagardas Road","Andheri East","Mumbai","400069","19.124801","72.851697","Maharashtra","10:00:00","22:00:00","1","0","1","1","1","1","1",NULL,NULL,"9892031644","1026","2015-10-21","N",NULL,NULL,NULL,NULL,"Monish","2016-02-09 00:00:00"
"80","Decent Womens Wear","Shop No 3-B, Building No 22, Amarjyoti ","Four Bunglows","Andheri West","Mumbai","400053","19.128203","72.825477","Maharashtra","10:00:00","22:00:00","1","1","1","1","1","1","1",NULL,NULL,"2226373264","1027","2015-10-21","N",NULL,NULL,NULL,NULL,"Monish","2016-02-09 00:00:00"
"81","Dhanraj boutiquee","4, Shanti Bhavan J.P.Road","Opp Ram Mandir","Andheri West","Mumbai","400058","19.122488","72.84526","Maharashtra","10:00:00","22:00:00","1","1","1","1","1","1","1",NULL,NULL,"986763560","1028","2015-10-21","N",NULL,NULL,NULL,NULL,"Monish","2016-02-09 00:00:00"
"82","Famous Optic","Shop No 09, Zehra apartment,","Behram Baug","Jogeshwari West","Mumbai","400102","19.144129","72.841247","Maharashtra","09:30:00","21:30:00","0","1","1","1","1","1","1",NULL,NULL,"9773534095","1030","2015-10-21","N",NULL,NULL,NULL,NULL,NULL,NULL
"84","Nuzhat Footwear","Shop No !-A, Hansanabad Building","Behram Baug","Jogeshwari West","Mumbai","400102","19.143633","72.839196","Maharashtra","10:00:00","22:00:00","1","1","1","1","1","1","1",NULL,NULL,"9619785078","1031","2015-10-21","N",NULL,NULL,NULL,NULL,NULL,NULL
"85","Shamshad Gadi Bhandar","Shop No 2, Near Metro Palace Hotel Behram Baug","Opp Farid Seekh Kabab","Jogeshwari West","Mumbai","400102","19.143298","72.837996","Maharashtra","10:00:00","22:30:00","1","1","1","1","1","1","1",NULL,NULL,"02226790869","1032","2015-10-21","N",NULL,NULL,NULL,NULL,NULL,NULL
"86","S-3 Collection","1, Jiwa Hirji Patel Compound","Behram Baug","Jogeshwari West","Mumbai","400102","19.143329","72.837112","Maharashtra","10:00:00","22:30:00","1","1","1","1","1","1","1",NULL,NULL,"9664825300","1033","2015-10-21","N",NULL,NULL,NULL,NULL,NULL,NULL
"87","Hilco optics","113, J.P.Road (Versova Road)","Near Santoshi Maa Temple","Andheri West","Mumbai","400058","19.123541","72.843197","Maharashtra","09:30:00","21:30:00","1","1","1","1","1","1","1",NULL,NULL,"2226776180","1034","2015-10-21","N",NULL,NULL,NULL,NULL,"Monish","2016-02-09 00:00:00"
"88","Maitri Material","Shop No 3,110  Narayan Bhuvan","J.P.Road","Andheri west","Mumbai","400058","19.123929","72.842979","Maharashtra","10:00:00","22:00:00","1","1","1","1","1","1","1",NULL,NULL,"2226776228","1035","2015-10-21","N",NULL,NULL,NULL,NULL,"Monish","2016-02-09 00:00:00"
"89","Kapil Enterprises","Shop No 46, Ground Floor Sunil Shopping Centre J.P.Road","Opp Navrang Theatre","Andheri West","Mumbai","400058","19.123991","72.842488","Maharashtra","10:30:00","20:30:00","1","1","1","1","0","1","1",NULL,NULL,"2226791536","1036","2015-10-21","N",NULL,NULL,NULL,NULL,"Monish","2016-02-09 00:00:00"
"90","Fashion House","Shop No 9, J.P.Road","Opp Ram Mandir","Andheri West","Mumbai","400058","19.122543","72.845158","Maharashtra","10:00:00","21:00:00","1","1","1","1","1","1","1",NULL,NULL,"2226704131","1037","2015-10-21","N",NULL,NULL,NULL,NULL,"Monish","2016-02-09 00:00:00"
"91","Chashma Ghar","A/03, Sakinaka Industrial Market, A. G. Link Road, Sakinaka Junction","Opp. Maharashtra Vajan Kata","Sakinaka","Mumbai","400072","19.103156","72.887531","Maharashtra","10:30:00","22:00:00","1","1","1","1","1","1","1",NULL,NULL,"02228561919","1038","2015-10-22","N",NULL,NULL,NULL,NULL,NULL,NULL
"92","Solanki Furnishing & Mattresses","Shop No 2, Lalit kunj, Koldongri, Sahar Road",,"Andheri East","Mumbai","400069","19.116232","72.844421","Maharashtra","09:00:00","21:00:00","1","0","1","1","1","1","1",NULL,NULL,"2226827616","1039","2015-10-22","N",NULL,NULL,NULL,NULL,"Monish","2016-02-09 00:00:00"
"93","Bellariz Fashion","Shop No. 5, Harchusind, Bahar C.H.S, Behram Baug Rd, ",,"Jogeshwari West","Mumbai","400102","19.143937","72.841481","Maharashtra","10:00:00","21:30:00","1","1","1","1","1","1","1",NULL,NULL,"9769531131","1040","2015-10-22","N",NULL,NULL,NULL,NULL,NULL,NULL
"94","Aaraish - Islamic Dresses","Shop No 4, Dream Land Apartment, Near Ruby Hospital, Vaishali Nagar",,"Jogeshwari West","Mumbai","400102","19.1439878","72.8419898","Maharashtra","11:00:00","22:00:00","1","1","1","1","0","1","1",NULL,NULL,"9870434543","1041","2015-10-22","N",NULL,NULL,NULL,NULL,NULL,NULL
"95","Falak Boutique","Shop No. 7 Dreamland building, Vaishali Nagar",,"Jogeshwari West","Mumbai","400102","19.145075","72.843192","Maharashtra","11:00:00","22:00:00","1","1","1","1","0","1","1",NULL,NULL,"9892554621","1042","2015-10-22","N",NULL,NULL,NULL,NULL,NULL,NULL
"96","Zaiba optics","Behram Baug to Veera Desai Road,  Behram Baug","Near Behram Baug Police chowky","Jogeshwari West","Mumbai","400102","19.143008","72.842927","Maharashtra","10:00:00","22:00:00","1","1","1","1","1","1","1",NULL,NULL,"02232003620","1043","2015-10-22","N",NULL,NULL,NULL,NULL,NULL,NULL
"97","Zaiba Optics","Shop No 2, Nrendra CHS, S.V. Road, ","Below Orbit Eye Hospital","Jogeshwari West","Mumbai","400102","19.1436495","72.8403608","Maharashtra","00:00:00","22:00:00","1","1","1","1","1","1","1",NULL,NULL,"02232238125","1043","2015-10-22","N",NULL,NULL,NULL,NULL,NULL,NULL
"98","Zaiba Optics","Shop No. 13, Belwalkar Wadi, M. G. Road",,"Goregaon West","Mumbai","400104","19.1630501","72.8371113","Maharashtra","10:00:00","22:00:00","1","1","1","1","1","1","1",NULL,NULL,"9920525525","1043","2015-10-22","N",NULL,NULL,NULL,NULL,NULL,NULL
"99","Magson Mens Wear","Gokul Arcade, Shop no. A/9, S.N. Marg","Next to Garware","Vile Parle East","Mumbai","400057","19.109852","72.852013","Maharashtra","11:00:00","21:00:00","1","0","1","1","1","1","1",NULL,NULL,"9172864999","1044","2015-10-22","N",NULL,NULL,NULL,NULL,NULL,NULL
"100","ALFIZA","Shop No. 1, 2, 3 Ganesh Nagar, New Link Road, Near Tandon garage","Opp. Evershine Gree tower","Jogeshwari West","Mumbai","400102","19.146388","72.833444","Maharashtra","10:30:00","22:00:00","1","1","1","1","1","0","1",NULL,NULL,"9619529228","1045","2015-10-22","N",NULL,NULL,NULL,NULL,NULL,NULL
"101","Sunrise Furniture","Shop No. 4, New Link Road","Opp. Evershine Building","Jogeshwari West","Mumbai","400102","19.146319","72.833646","Maharashtra","10:00:00","22:00:00","1","1","1","1","1","0","1",NULL,NULL,"9702699568","1046","2015-10-22","N",NULL,NULL,NULL,NULL,NULL,NULL
"102","Indian Art","Shop No 5, New Link Road, Behram baug","Opp. Evershine Green","Jogeshwari West","Mumbai","400102","19.145958","72.834059","Maharashtra","10:00:00","22:00:00","1","1","1","1","1","0","1",NULL,NULL,"9768031910","1047","2015-10-22","N",NULL,NULL,NULL,NULL,NULL,NULL
"103","Natural Living Furniture","Shop No 2 , New Link Road, Adarsh Nagar","opp. Raigad Military School","Jogeshwari West","Mumbai","400102","19.145918","72.834520","Maharashtra","10:00:00","22:00:00","1","1","1","1","1","0","1",NULL,NULL,"9322831177","1048","2015-10-22","N",NULL,NULL,NULL,NULL,NULL,NULL
"104","Style Furniture","Shop No 7, New Link Road, ","Opp. Raigad military school","Jogeshwari West","Mumbai","400102","19.146031","72.834409","Maharashtra","10:00:00","22:00:00","1","1","1","1","1","0","1",NULL,NULL,"9869662568","1049","2015-10-22","N",NULL,NULL,NULL,NULL,NULL,NULL
"105","Shivam Chairs","New Link Road, Behram baug","opp. Shiv Sai Mandir","Jogeshwari West","Mumbai","400102","19.145754","72.836469","Maharashtra","09:00:00","18:00:00","1","1","1","1","1","1","1",NULL,NULL,"9769656772","1050","2015-10-22","N",NULL,NULL,NULL,NULL,NULL,NULL
"106","Tirupati Gents & Boys Wear","Station Road, Near Hanuman Temple","opp. satelite shopping center","Jogeshwari East","Mumbai","400102","19.135489","72.850759","Maharashtra","09:00:00","22:30:00","1","0","1","1","1","1","1",NULL,NULL,"9920787198","1051","2015-10-22","N",NULL,NULL,NULL,NULL,NULL,NULL
"107","Siddhi Collection","Shop No 7, Satellite Shopping Center, Station Road",,"Jogeshwari East","Mumbai","400060","19.135481","72.850766","Maharashtra","09:30:00","22:00:00","1","0","1","1","1","1","1",NULL,NULL,"9892673556","1052","2015-10-22","N",NULL,NULL,NULL,NULL,NULL,NULL
"108","Satyam Appliances","Shop no 14, Satellite Classic Shopping Center","Opp. Hanuman Mandir","Jogeshwari East","Mumbai","400060","19.135501","72.850822","Maharashtra","09:30:00","22:00:00","1","1","1","1","1","1","1",NULL,NULL,"02265269944","1053","2015-10-22","N",NULL,NULL,NULL,NULL,NULL,NULL
"109","Anmol","Shop No 3, Dinbai Building, Station Road",,"Jogeshwari East","Mumbai","400060","19.135973","72.851537","Maharashtra","10:30:00","21:30:00","1","0","1","1","1","1","1",NULL,NULL,"02228395411","1054","2015-10-22","N",NULL,NULL,NULL,NULL,NULL,NULL
"110","Textile Emporium","146, J.P. Road","Near Andheri Station","Andheri West","Mumbai","400058","19.122385","72.845445","Maharashtra","09:30:00","21:30:00","1","1","1","1","0","1","1",NULL,NULL,"9867697292","1055","2015-10-23","N",NULL,NULL,NULL,NULL,"Monish","2016-02-09 00:00:00"
"111","Allwyn Ready Made Garments","Shpo No 7, Neelkanth Chawl J.P.Road","Opp Ram Mandir","Andheri West","Mumbai","400058","19.122398","72.845415","Maharashtra","09:00:00","22:00:00","1","1","1","1","0","1","1",NULL,NULL,"9833869992","1056","2015-10-23","N",NULL,NULL,NULL,NULL,"Monish","2016-02-09 00:00:00"
"112","Fitness Hub","Dubey Building Compound, Old Nagardas Road","Opp Allahabad bank","Andheri East","Mumbai","400069","19.123361","72.850903","Maharashtra","06:00:00","23:00:00","0","1","1","1","1","1","1",NULL,NULL,"9819165004","1057","2015-10-23","N",NULL,NULL,NULL,NULL,"Monish","2016-02-09 00:00:00"
"113","Reshma Furnishing & Mattresses","Shop No 1, Blossom Park, S.V.Road","Opp Farooqh High School","Jogeshwari West","Mumbai","400102","19.132477","72.847823","Maharashtra","10:00:00","21:30:00","1","1","1","1","1","1","1",NULL,NULL,"9870786286","1058","2015-10-23","N",NULL,NULL,NULL,NULL,NULL,NULL
"114","A-One Collection","Shop No 3, Setelite Classic Shopping Centre","Station Road","Jogeshwari East","Mumbai","400060","19.135485","72.850743","Maharashtra","09:00:00","22:00:00","1","0","1","1","1","1","1",NULL,NULL,"7738782843","1059","2015-10-23","N",NULL,NULL,NULL,NULL,NULL,NULL
"115","Rang Jyot Matching Centre","Jogeshwari Station Road","Near Munciple Market","Jogeshwari East","Mumbai","400060","19.135484","72.850753","Maharashtra","11:00:00","21:00:00","1","1","1","1","1","1","1",NULL,NULL,"9892947590","1060","2015-10-23","N",NULL,NULL,NULL,NULL,NULL,NULL
"116","Sajani Sarees NX","Shop No 4, Dastur Building Station Road","Near Bharat Bank","Jogeshwari East","Mumbai","400060","19.135922","72.851381","Maharashtra","09:00:00","22:00:00","1","0","1","1","1","1","1",NULL,NULL,"9892566319","1061","2015-10-23","N",NULL,NULL,NULL,NULL,NULL,NULL
"117","Sajani Sarees","Shop No 4, Dastur Building Station Road","Near Bharat Bank","Jogeshwari East","Mumbai","400060","19.135922","72.851381","Maharashtra","09:00:00","22:00:00","1","0","1","1","1","1","1",NULL,NULL,"9892566319","1061","2015-10-23","N",NULL,NULL,NULL,NULL,NULL,NULL
"118","Lucky Fashion","A-1, Swami Chawl, Station Road","Opp Kulkarni Hospital","Jogeshwari East","Mumbai","400060","19.136016","72.851864","Maharashtra","10:30:00","21:00:00","1","0","1","1","1","1","1",NULL,NULL,"9833671712","1062","2015-10-23","N",NULL,NULL,NULL,NULL,NULL,NULL
"119","Deepak Steel Centre","Caves Road","Opp Interlink Compound","Jogeshwari East","Mumbai","400060","19.136407","72.852781","Maharashtra","09:00:00","22:00:00","1","1","1","1","1","1","1",NULL,NULL,"02228353599","1063","2015-10-23","N",NULL,NULL,NULL,NULL,NULL,NULL
"120","Kurti Point","Shop No. A-9, Gayatri Dham Shopping Center, M. G. Road ","Junction of Derasar Lane & M.G. Road","Ghatkopar East","Mumbai","400077","19.082735","72.905049","Maharashtra","11:00:00","21:00:00","1","0","1","1","1","1","1",NULL,NULL,"2225010735","1064","2015-10-23","N",NULL,NULL,NULL,NULL,"Monish","2016-02-09 00:00:00"
"121","Little Baby","Hardevi Co-Op Society, Station Road","Opp Interlink Compound","Jogeshwari East","Mumbai","400060","19.136460","72.852878","Maharashtra","10:00:00","22:00:00","1","0","1","1","1","1","1",NULL,NULL,"9892379592","1065","2015-10-23","N",NULL,NULL,NULL,NULL,NULL,NULL
"122","Eye Care","8. Paras Darshan, M.G. Road",,"Ghatkopar East","Mumbai","400077","19.082283","72.904737","Maharashtra","10:00:00","21:00:00","1","0","1","1","1","1","1",NULL,NULL,"2221026047","1066","2015-10-23","N",NULL,NULL,NULL,NULL,"Monish","2016-02-09 00:00:00"
"123","Akshay Uniform","Shop No 1, Caves Road","Opp Bank of Baroda","Jogeshwari East","Mumbai","400060","19.136778","72.853639","Maharashtra","09:30:00","21:30:00","1","0","1","1","1","1","1",NULL,NULL,"9323908379","1067","2015-10-23","N",NULL,NULL,NULL,NULL,NULL,NULL
"124","VIP Park","5, Marvadi Building, M.G. Road","Opp. Deraser Lane","Ghatkopar East","Mumbai","400077","19.082688","72.904894","Maharashtra","10:00:00","21:00:00","1","1","1","1","1","1","1",NULL,NULL,"2221027936","1068","2015-10-23","N",NULL,NULL,NULL,NULL,"Monish","2016-02-09 00:00:00"
"125","Cherish - Complete Mobile Shop","Shop. No. 10, Shree Krupa Building, Navroji Lane","Near Muni Suvrat Deraser","Ghatkopar West","Mumbai","400086","19.084535","72.904883","Maharashtra","10:00:00","21:00:00","1","1","1","1","1","1","1",NULL,NULL,"2225144844","1069","2015-10-23","N",NULL,NULL,NULL,NULL,"Monish","2016-02-09 00:00:00"
"126","Satyam Collection","Dastur Building Station Road","Near SBI Bank","Jogeshwari East","Mumbai","400060","19.135939","72.851392","Maharashtra","09:00:00","22:00:00","1","0","1","1","1","1","1",NULL,NULL,"9167115722","1070","2015-10-23","N",NULL,NULL,NULL,NULL,NULL,NULL
"127","One Look - Teens & Ladies Western Wear","Shop no. 4 Ratan Mahal, ","Near Ghatkopar Railway Station","Ghatkopar West","Mumbai","400086","19.0853576","72.9031073","Maharashtra","11:00:00","22:00:00","1","1","1","1","1","1","1",NULL,NULL,"9821454535","1071","2015-10-23","N",NULL,NULL,NULL,NULL,"Monish","2016-02-09 00:00:00"
"128","Satyam Collection","Dastur Building Station road","Opp SBI Bank","Jogeshwari East","Mumbai","400060","19.135939","72.851392","Maharashtra","09:00:00","22:00:00","1","0","1","1","1","1","1",NULL,NULL,"9167115722","1070","2015-10-23","N",NULL,NULL,NULL,NULL,NULL,NULL
"129","Tip Top Shoe Co","Shop No. 6-7, Rajkamal, Shradhanand Road","Near Railway Station","Ghatkopar West","Mumbai","400086","19.084897","72.905406","Maharashtra","10:00:00","21:00:00","1","1","1","1","1","1","1",NULL,NULL,"2225160215","1072","2015-10-23","N",NULL,NULL,NULL,NULL,"Monish","2016-02-09 00:00:00"
"130","Paduka family Footwear","Sadanand Rd, Near Hindu Maha Sabha Hospital","Opp. Milan Shopping center","Ghatkopar West","Mumbai","400086","19.0849","72.905839","Maharashtra","10:00:00","22:00:00","1","1","1","1","0","1","1",NULL,NULL,"8976919519","1074","2015-10-23","N",NULL,NULL,NULL,NULL,"Monish","2016-02-09 00:00:00"
"131","Paduka Family Footwear","Sadanand Road, Opp. Milan shopping center","Near Hindu Mahasabha Hospital","Ghatkopar West","Mumbai","400086","19.0849","72.905839","Maharashtra","10:00:00","22:00:00","1","1","1","1","0","1","1",NULL,NULL,"8976919519","1074","2015-10-23","N",NULL,NULL,NULL,NULL,"Monish","2016-02-09 00:00:00"
"132","Tipsy Collection","Shardanand Road, Near railway station","Opp. Hindu Mahasabha Hospital","Ghatkopar West","Mumbai","400086","19.0852863","72.9040984","Maharashtra","10:30:00","22:30:00","1","1","1","1","1","1","1",NULL,NULL,"9833592651","1076","2015-10-23","N",NULL,NULL,NULL,NULL,"Monish","2016-02-09 00:00:00"
"133","Wadala Grih Vastu Bhandar","Shop No 4, Disendow Building Gufa Road",,"Jogeshwari East","Mumbai","400060","19.136610","72.853283","Maharashtra","09:00:00","21:00:00","1","0","1","1","1","1","0",NULL,NULL,"9867495784","1075","2015-10-23","N",NULL,NULL,NULL,NULL,NULL,NULL
"134","Mastikhor Collection","4, Arvind Villa","Opp. Railway station","Ghatkopar West","Mumbai","400086","19.08539","72.907226","Maharashtra","10:00:00","21:30:00","1","1","1","1","0","1","1",NULL,NULL,"225136366","1077","2015-10-23","N",NULL,NULL,NULL,NULL,"Monish","2016-02-09 00:00:00"
"135","Shree Sateri Optics","Dalwai Compound Station Road","Near Western Exp Highway","Jogeshwari East","Mumbai","400060","19.136860","72.854394","Maharashtra","09:00:00","21:00:00","1","0","1","1","1","1","1",NULL,NULL,"7666050173","1078","2015-10-23","N",NULL,NULL,NULL,NULL,NULL,NULL
"136","KORRI ","Jai Moti Building, Hirachand Desai Road","Opp. New Post office","Ghatkopar West","Mumbai","400086","19.086649","72.907956","Maharashtra","10:10:00","22:00:00","1","1","1","1","1","1","1",NULL,NULL,"2225113777","1079","2015-10-23","N",NULL,NULL,NULL,NULL,"Monish","2016-02-09 00:00:00"
"137","KORRI","Shop No 3/4 Star Mall, Opp Plaza Cinema, N.C. Kelkar Road","Near Shivaji Mandir","Dadar West","Mumbai","400028","19.0256358","72.8401306","Maharashtra","10:00:00","22:00:00","1","1","1","1","1","1","1",NULL,NULL,"2224213777","1079","2015-10-23","N",NULL,NULL,NULL,NULL,"Monish","2016-02-09 00:00:00"
"138","KORRI","Guru Prerna Building, Naik wadi, Shivaji Path",,"Thane West","Mumbai","400602","19.1886152","72.9746271","Maharashtra","10:00:00","22:00:00","1","1","1","1","1","1","1",NULL,NULL,"02225393777","1079","2015-10-23","N",NULL,NULL,NULL,NULL,NULL,NULL
"139","KORRI","Shop No 1 Prabhat Plaza, behind kalyan Jewelers, Station Road",,"Thane West","Thane","400601","19.190532","72.9744074","Maharashtra","10:00:00","22:00:00","1","1","1","1","1","1","1",NULL,NULL,"02225343777","1079","2015-10-23","N",NULL,NULL,NULL,NULL,NULL,NULL
"140","Mehul Opticians","Shop No 3, Dalwai Compound Gumpha Road","Near western Exp Highway","Jogeshwari East","Mumbai","400060","19.136392","72.854856","Maharashtra","10:30:00","09:00:00","0","1","1","1","1","1","1",NULL,NULL,"9820728383","1080","2015-10-23","N",NULL,NULL,NULL,NULL,NULL,NULL
"141","Fashion Palace","9 Laxmi Shopping Center","Near railway station","Ghatkopar West","Mumbai","400086","19.086669","72.907943","Maharashtra","10:00:00","22:00:00","1","1","1","1","0","1","1",NULL,NULL,"2225112058","1081","2015-10-23","N",NULL,NULL,NULL,NULL,"Monish","2016-02-09 00:00:00"
"142","World Fashion","Shop No. 24, J. B. Road, Gopalji Devi Chowk","Opp. Bata Showroom","Ghatkopar West","Mumbai","400086","19.087653","72.907983","Maharashtra","10:00:00","22:00:00","1","1","1","1","1","1","1",NULL,NULL,"9833326896","1082","2015-10-23","N",NULL,NULL,NULL,NULL,"Monish","2016-02-09 00:00:00"
"143","Roop Sangam Family Shop","Caves Road","Near Bank of Barod","Jogeshwari East","Mumbai","400060","19.136609","72.853181","Maharashtra","09:30:00","21:30:00","1","0","1","1","1","1","1",NULL,NULL,"9004810055","1083","2015-10-23","N",NULL,NULL,NULL,NULL,NULL,NULL
"144","Clothes Corner","Shop No 2, Ground Floor Manek Niwas, Caves Road","Near jain Temple","Jogeshwari East","Mumbai","400060","19.136307","72.852498","Maharashtra","11:00:00","10:00:00","1","0","1","1","1","1","1",NULL,NULL,"8082040051","1084","2015-10-23","N",NULL,NULL,NULL,NULL,NULL,NULL
"145","Le Brog Shoes Centre","Shop No 3, Ayub Manzil Caves Road","Near Highway Bridge","Jogeshwari East","Mumbai","400060","19.136253","72.855012","Maharashtra","10:00:00","22:00:00","1","0","1","1","1","1","1",NULL,NULL,"9987203111","1085","2015-10-23","N",NULL,NULL,NULL,NULL,NULL,NULL
"146","Comfort Foot Wear","Shop No 1, Dalwai Compound Caves Road","Near Jogeshwari Subway","Jogeshwari East","Mumbai","400060","19.136432","72.854912","Maharashtra","10:00:00","22:00:00","1","0","1","1","1","1","1",NULL,NULL,"8652895915","1086","2015-10-23","N",NULL,NULL,NULL,NULL,NULL,NULL
"147","Lucky Steel Furnicture","Dalwai Compound, Sanjay Nagar","Near Jogeshwari  Highway Bridge","Jogeshwari East","Mumbai","400060","19.137438","72.855431","Maharashtra","10:00:00","22:00:00","1","1","1","1","1","1","1",NULL,NULL,"8767379467","1087","2015-10-23","N",NULL,NULL,NULL,NULL,NULL,NULL
"148","Metro Teilors & Clothiers","Sanjay Gandhi Nagar, Caves Road","Near Western Exp Hoghway","Jogeshwari East","Mumbai","400060","19.136251","72.855012","Maharashtra","10:00:00","22:00:00","1","0","1","1","1","1","1",NULL,NULL,"9029524150","1088","2015-10-23","N",NULL,NULL,NULL,NULL,NULL,NULL
"149","Metro Tailors & Clothiers","Sajawat Building Achole Road","Near Sangam Medical Store","Nallasopara East","Thane","401209","19.41501","72.8222243","Maharashtra","10:00:00","22:00:00","1","1","1","1","1","1","1",NULL,NULL,"9224450391","1088","2015-10-23","N",NULL,NULL,NULL,NULL,NULL,NULL
"150","Kalpana Telecom","2, Sanjay Gandhi Nagar, Gumpha Raod","Nr. Western Express Highway","Jogeshwari East","Mumbai","400060","19.136290","72.855071","Maharashtra","10:00:00","22:00:00","1","0","1","1","1","1","1",NULL,NULL,"02228383940","1089","2015-10-28","N",NULL,NULL,NULL,NULL,NULL,NULL
"151","S.A.Fashions","25/B, Suyog Co-op Housing society, Bimbisar Nagar","MHADA colony","Goregaon East","Mumbai","400065","19.0667206","72.8948302","Maharashtra","09:30:00","22:00:00","1","0","1","1","1","1","1",NULL,NULL,"8898192023","1090","2015-10-28","N",NULL,NULL,NULL,NULL,"Monish","2016-02-09 00:00:00"
"152","S.A.Fashions","R/1, Dwarkamai Housing, D.M road,Vakola pipeline.","Behind Dr.Mehta clinic","Santacruz East","Mumbai","400055","19.0739609","72.8497287","Maharashtra","09:30:00","22:00:00","1","0","1","1","1","1","1",NULL,NULL,"8898192023","1090","2015-10-28","N",NULL,NULL,NULL,NULL,NULL,NULL
"153","S.A.Fashions","Shop No.2 Deshmukh Chawl,Gandhi Nagar","E ward","Jogeshwari East","Mumbai","400060","19.136287","72.856344","Maharashtra","09:30:00","22:00:00","1","0","1","1","1","1","1",NULL,NULL,"8898192023","1090","2015-10-28","N",NULL,NULL,NULL,NULL,NULL,NULL
"154","Sai Ganesh","Shop No.2, Kaamruddin chawl, Prem Nagar, Quarters colony road",,"Jogeshwari East","Mumbai","400060","19.135325","72.859238","Maharashtra","10:00:00","22:00:00","1","0","1","1","1","1","1",NULL,NULL,"9702619711","1091","2015-10-28","N",NULL,NULL,NULL,NULL,NULL,NULL
"155","FAB Furnishing","Shop No.14, Rizvi Park, S.V.Road","Besides Reliance Mall","Santacruz West","Mumbai","400054","19.088979","72.838313","Maharashtra","10:00:00","21:00:00","1","1","1","1","1","0","1",NULL,NULL,"9920393889","1092","2015-10-28","N",NULL,NULL,NULL,NULL,NULL,NULL
"156","Springwell","Shop No.E, India House No.1, August Kranti Marg.","Opposite Om Chamber","Santacruz West","Mumbai","400036","19.089297","72.838364","Maharashtra","10:00:00","20:00:00","1","1","1","1","1","1","1",NULL,NULL,"02266468000","1093","2015-10-28","N",NULL,NULL,NULL,NULL,NULL,NULL
"157","Natraj Luggage","Shop No.1, Poddar Chawl, S.V.Road.","Opposite Asha Parekh Hospital","Santacruz West","Mumbai","400054","19.082804","72.837964","Maharashtra","10:30:00","21:30:00","1","1","1","1","1","1","1",NULL,NULL,"02226051740","1094","2015-10-28","N",NULL,NULL,NULL,NULL,NULL,NULL
"158","Sequence","Shop No.4, Anju Shopping Centre, Tilak Road",,"Santacruz West","Mumbai","400054","19.0827756","72.8349459","Maharashtra","10:00:00","21:00:00","1","1","1","1","0","1","1",NULL,NULL,"02226493529","1095","2015-10-28","N",NULL,NULL,NULL,NULL,NULL,NULL
"159","Heniken","Triveni CHS, Shop No.2 & 3, S.V.ROAD",,"Santacruz West","Mumbai","400054","19.0815401","72.8359323","Maharashtra","10:30:00","21:00:00","1","1","1","1","1","1","1",NULL,NULL,"02226493129","1096","2015-10-28","N",NULL,NULL,NULL,NULL,NULL,NULL
"160","DMV Khatri","Shop No.1,Bombay Bazar Building,Stn. Road.",,"Santacruz West","Mumbai","400054","19.080810","72.839298","Maharashtra","10:00:00","20:30:00","1","0","1","1","0","1","1",NULL,NULL,"02226104998","1097","2015-10-28","N",NULL,NULL,NULL,NULL,NULL,NULL
"161","DMV Khatri","30,Kamdar Shopping Center,Monghibai road.","Opposite Railway station","Vile Parle East","Mumbai","400057","19.0997975","72.8451217","Maharashtra","10:00:00","20:30:00","1","0","1","1","0","1","1",NULL,NULL,"02226104998","1097","2015-10-28","N",NULL,NULL,NULL,NULL,NULL,NULL
"162","Dream Home","Shop No.4, Rameshwar building,S.V.road.","Opposite Kohinoor Electronics","Santacruz West","Mumbai","400054","19.086488","72.838112","Maharashtra","10:00:00","20:30:00","1","1","1","1","0","1","1",NULL,NULL,"02226121936","1098","2015-10-28","N",NULL,NULL,NULL,NULL,NULL,NULL
"163","Kurl-On Mattress Xpress","Shop No.8, Darshan Smruti,174 S.V.road","Opposite Vijay sales, next to Airtel gallery","Santacruz West","Mumbai","400054","19.085107","72.838057","Maharashtra","11:00:00","21:00:00","1","1","1","1","1","1","1",NULL,NULL,"02226008746","1099","2015-10-28","N",NULL,NULL,NULL,NULL,NULL,NULL
"164","Valcas","Shop No.1, Omkar Apartment, S.V.Road","Opposite Reliance Mart","Santacruz West","Mumbai","400054","19.088531","72.838202","Maharashtra","11:00:00","21:00:00","1","1","1","1","1","1","1",NULL,NULL,"02265601233","1100","2015-10-28","N",NULL,NULL,NULL,NULL,NULL,NULL
"165","Variation World","#4,Dinar Building,Opposite Santacruz Station Road.","Opposite City Plaza","Santacruz West","Mumbai","400054","19.080897","72.838813","Maharashtra","10:30:00","09:30:00","1","1","1","1","0","1","1",NULL,NULL,"02226008809","1101","2015-10-28","N",NULL,NULL,NULL,NULL,NULL,NULL
"166","Shriman","6-7-8, Kothari Niwas, Sanatorium Lane.",,"Ghatkopar West","Mumbai","400086","19.086273","72.905864","Maharashtra","10:00:00","21:30:00","1","1","1","1","1","1","1",NULL,NULL,"2225140688","1102","2015-10-29","N",NULL,NULL,NULL,NULL,"Monish","2016-02-09 00:00:00"
"167","Vishwakarma","ShopNo.6, Sanskar Building, Hirachand Desai Road.",,"Ghatkopar West","Mumbai","400086","19.088133","72.905779","Maharashtra","09:00:00","21:00:00","1","1","1","1","0","1","1",NULL,NULL,"9870345665","1103","2015-10-29","N",NULL,NULL,NULL,NULL,"Monish","2016-02-09 00:00:00"
"168","Famous","Shop 157B & 3, Anjariya Sadan, L.B.S road.","Opposite Telephone exchange","Ghatkopar West","Mumbai","400086","19.087885","72.904684","Maharashtra","09:00:00","21:00:00","1","1","1","1","0","1","1",NULL,NULL,"2225131823","1104","2015-10-29","N",NULL,NULL,NULL,NULL,"Monish","2016-02-09 00:00:00"
"169","Zoom Mobile","ShopNo.4, D.B.Trust Building,M.G.Road","Opposite Old Post Office","Ghatkopar West","Mumbai","400086","19.087716","72.905771","Maharashtra","10:30:00","21:30:00","1","1","1","1","1","1","1",NULL,NULL,"2225131545","1105","2015-10-29","N",NULL,NULL,NULL,NULL,"Monish","2016-02-09 00:00:00"
"170","Bhavi Collection","Shop No.4, Tulsi Bhuvan, M.G.Road","Opposite Kapolwadi","Ghatkopar West","Mumbai","400086","19.087117","72.905801","Maharashtra","10:30:00","22:00:00","1","1","1","1","0","1","1",NULL,NULL,"2225020367","1106","2015-10-29","N",NULL,NULL,NULL,NULL,"Monish","2016-02-09 00:00:00"
"171","Dhanvant","Chinman Nivas, Gopal Lane, M.G.Road.","Jain Dughdhalaya","Ghatkopar West","Mumbai","400086","19.087019","72.90574","Maharashtra","09:00:00","21:00:00","1","1","1","1","1","1","1",NULL,NULL,"2225108650","1107","2015-10-29","N",NULL,NULL,NULL,NULL,"Monish","2016-02-09 00:00:00"
"172","Vimal","52, M.G.Road, Shop No.1, Kapol Wadi",,"Ghatkopar West","Mumbai","400086","19.086959","72.905739","Maharashtra","09:00:00","20:30:00","1","1","1","1","0","1","1",NULL,NULL,"2225139441","1108","2015-10-29","N",NULL,NULL,NULL,NULL,"Monish","2016-02-09 00:00:00"
"173","Dhanvant sarees","Tulsi Bhavan, Gopal Lane, M.G.Road.",,"Ghatkopar West","Mumbai","400086","19.087329","72.905607","Maharashtra","10:30:00","20:30","1","1","1","0","1","1","1",NULL,NULL,"2225132316","1109","2015-10-29","N",NULL,NULL,NULL,NULL,"Monish","2016-02-09 00:00:00"
"174","Just - 2","Shop No.4, Rangwala Apartments, Sanatarium Lame, M.G.Road",,"Ghatkopar West","Mumbai","400086","19.086281","72.905838","Maharashtra","10:00:00","22:00:00","1","1","1","1","1","1","1",NULL,NULL,"8097118204","1110","2015-10-29","N",NULL,NULL,NULL,NULL,"Monish","2016-02-09 00:00:00"
"175","Saloni NX","Shop No.7, Elchiwala building, M.G.Road","Opposite Kapolwadi","Ghatkopar West","Mumbai","400086","19.086907","72.905756","Maharashtra","10:00:00","22:00:00","1","1","1","1","1","1","1",NULL,NULL,"2225155502","1114","2015-10-29","N",NULL,NULL,NULL,NULL,"Monish","2016-02-09 00:00:00"
"176","Gupta Watch Co.","Laxmi Apartment, Shop no. 2-A, J.V.Road,Khot Lane",,"Ghatkopar West","Mumbai","400086","19.087485","72.906356","Maharashtra","10:00:00","22:00:00","1","1","1","1","0","1","1",NULL,NULL,"2225131348","1116","2015-11-02","N",NULL,NULL,NULL,NULL,"Monish","2016-02-09 00:00:00"
"177","Royal Foam Furnishing","10,New Alpana Co.op hsg. premises,LBS Marg","Off Khot Lane","Ghatkopar West","Mumbai","400086","19.088328","72.906425","Maharashtra","09:00:00","21:00:00","0","1","1","0","1","1","1",NULL,NULL,"2225147323","1117","2015-11-02","N",NULL,NULL,NULL,NULL,"Monish","2016-02-09 00:00:00"
"178","Mangal Opticians","12, Neelkanth Shopping Centre, Navroji Lane",,"Ghatkopar West","Mumbai","400086","19.084668","72.904961","Maharashtra","09:30:00","20:30:00","1","1","1","1","0","1","1",NULL,NULL,"2225114471","1118","2015-11-02","N",NULL,NULL,NULL,NULL,"Monish","2016-02-09 00:00:00"
"179","Episode - Asiad Plaza Santcruz West","Asiad Plaza, Station Road",,"Santacruz West","Mumbai","400054","19.0807241","72.7680865","Maharashtra",,,"1","1","1","1","1","1","1",NULL,,"02226488642","1119","2015-11-05","Y",NULL,NULL,NULL,NULL,NULL,NULL
"180","Aldo - Atria The Millennium Mall Worli","Atria",,"Worli","Mumbai","400018","18.9912503","72.8146107","Maharashtra",,,"1","1","1","1","1","1","1",NULL,,"02224813561","1120","2015-11-05","Y",NULL,NULL,NULL,NULL,NULL,NULL
"181","Aldo Accessories - Atria The Millennium Mall Worli","Atria",,"Worli","Mumbai","400018","18.9912503","72.8146107","Maharashtra",,,"1","1","1","1","1","1","1",NULL,,"02224813547","1121","2015-11-05","Y",NULL,NULL,NULL,NULL,NULL,NULL
"182","Archies Galleries - Atria The Millennium Mall Worli","Atria",,"Worli","Mumbai","400018","18.9912503","72.8146107","Maharashtra",,,"1","1","1","1","1","1","1",NULL,,"02224813443","1122","2015-11-05","Y",NULL,NULL,NULL,NULL,NULL,NULL
"183","Baggit - Atria The Millennium Mall Worli","Atria",,"Worli","Mumbai","400018","18.9912503","72.8146107","Maharashtra",,,"1","1","1","1","1","1","1",NULL,,"02264512017","1123","2015-11-05","Y",NULL,NULL,NULL,NULL,NULL,NULL
"184","COSTA COFFEE - Atria The Millennium Mall Worli","Atria",,"Worli","Mumbai","400018","18.9912503","72.8146107","Maharashtra",,,"1","1","1","1","1","1","1",NULL,,"02267363399","1124","2015-11-05","Y",NULL,NULL,NULL,NULL,NULL,NULL
"185","HYPE - Atria The Millennium Mall Worli","Atria",,"Worli","Mumbai","400018","18.9912503","72.8146107","Maharashtra",,,"1","1","1","1","1","1","1",NULL,,"9004775777","1125","2015-11-05","Y",NULL,NULL,NULL,NULL,NULL,NULL
"186","Queue Up - Atria The Millennium Mall Worli","Atria",,"Worli","Mumbai","400018","18.9912503","72.8146107","Maharashtra",,,"1","1","1","1","1","1","1",NULL,,,"1126","2015-11-05","Y",NULL,NULL,NULL,NULL,NULL,NULL
"187","Rosebys - Atria The Millennium Mall Worli","Atria",,"Worli","Mumbai","400018","18.9912503","72.8146107","Maharashtra",,,"1","1","1","1","1","1","1",NULL,,"9967513335","1127","2015-11-05","Y",NULL,NULL,NULL,NULL,NULL,NULL
"188","Sepia - Atria The Millennium Mall Worli","Atria",,"Worli","Mumbai","400018","18.9912503","72.8146107","Maharashtra",,,"1","1","1","1","1","1","1",NULL,,"02224813513","1128","2015-11-05","Y",NULL,NULL,NULL,NULL,NULL,NULL
"189","Accessorize - Atria The Millennium Mall Worli","Atria",,"Worli","Mumbai","400018","18.9912503","72.8146107","Maharashtra",,,"1","1","1","1","1","1","1",NULL,,"02267363839","1129","2015-11-05","Y",NULL,NULL,NULL,NULL,NULL,NULL
"190","AND - Atria The Millennium Mall Worli","Atria",,"Worli","Mumbai","400018","18.9912503","72.8146107","Maharashtra",,,"1","1","1","1","1","1","1",NULL,,"02265177194","1130","2015-11-05","Y",NULL,NULL,NULL,NULL,NULL,NULL
"191","Art Karat - Atria The Millennium Mall Worli","Atria",,"Worli","Mumbai","400018","18.9912503","72.8146107","Maharashtra",,,"1","1","1","1","1","1","1",NULL,,"02224813311","1131","2015-11-05","Y",NULL,NULL,NULL,NULL,NULL,NULL
"192","Catwalk - Atria The Millennium Mall Worli","Atria",,"Worli","Mumbai","400018","18.9912503","72.8146107","Maharashtra",,,"1","1","1","1","1","1","1",NULL,,"02224813590","1132","2015-11-05","Y",NULL,NULL,NULL,NULL,NULL,NULL
"193","Charles & Keith - Atria The Millennium Mall Worli","Atria",,"Worli","Mumbai","400018","18.9912503","72.8146107","Maharashtra",,,"1","1","1","1","1","1","1",NULL,,"02232221156","1133","2015-11-05","Y",NULL,NULL,NULL,NULL,NULL,NULL
"194","Chemistry - Atria The Millennium Mall Worli","Atria",,"Worli","Mumbai","400018","18.9912503","72.8146107","Maharashtra",,,"1","1","1","1","1","1","1",NULL,,"02224813466","1134","2015-11-05","Y",NULL,NULL,NULL,NULL,NULL,NULL
"195","Collezioni Moda - Atria The Millennium Mall Worli","Atria",,"Worli","Mumbai","400018","18.9912503","72.8146107","Maharashtra",,,"1","1","1","1","1","1","1",NULL,,"02267363690","1135","2015-11-05","Y",NULL,NULL,NULL,NULL,NULL,NULL
"196","JFK Just For Kids - Atria The Millennium Mall Worli","Atria",,"Worli","Mumbai","400018","18.9912503","72.8146107","Maharashtra",,,"1","1","1","1","1","1","1",NULL,,"02232221160","1136","2015-11-05","Y",NULL,NULL,NULL,NULL,NULL,NULL
"197","La Senza - Atria The Millennium Mall Worli","Atria",,"Worli","Mumbai","400018","18.9912503","72.8146107","Maharashtra",,,"1","1","1","1","1","1","1",NULL,,"02224813564","1137","2015-11-05","Y",NULL,NULL,NULL,NULL,NULL,NULL
"198","Mango - Atria The Millennium Mall Worli","Atria",,"Worli","Mumbai","400018","18.9912503","72.8146107","Maharashtra",,,"1","1","1","1","1","1","1",NULL,,"02267363553","1138","2015-11-05","Y",NULL,NULL,NULL,NULL,NULL,NULL
"199","Patchi - Atria The Millennium Mall Worli","Atria",,"Worli","Mumbai","400018","18.9912503","72.8146107","Maharashtra",,,"1","1","1","1","1","1","1",NULL,,"02224813430","1139","2015-11-05","Y",NULL,NULL,NULL,NULL,NULL,NULL
"200","Patchi - Atria The Millennium Mall Worli","Atria",,"Worli","Mumbai","400018","18.9912503","72.8146107","Maharashtra",,,"1","1","1","1","1","1","1",NULL,,"02224813430","1139","2015-11-05","Y",NULL,NULL,NULL,NULL,NULL,NULL
"201","Promod - Atria The Millennium Mall Worli","Atria",,"Worli","Mumbai","400018","18.9912503","72.8146107","Maharashtra",,,"1","1","1","1","1","1","1",NULL,,"02224813559","1140","2015-11-05","Y",NULL,NULL,NULL,NULL,NULL,NULL
"202","Swarovski - Atria The Millennium Mall Worli","Atria",,"Worli","Mumbai","400018","18.9912503","72.8146107","Maharashtra",,,"1","1","1","1","1","1","1",NULL,,"02224813320","1141","2015-11-05","Y",NULL,NULL,NULL,NULL,NULL,NULL
"203","109f - Atria The Millennium Mall Worli","Atria",,"Worli","Mumbai","400018","18.9912503","72.8146107","Maharashtra",,,"1","1","1","1","1","1","1",NULL,,"02232020109","1142","2015-11-05","Y",NULL,NULL,NULL,NULL,NULL,NULL
"204","Ashmina - Atria The Millennium Mall Worli","Atria",,"Worli","Mumbai","400018","18.9912503","72.8146107","Maharashtra",,,"1","1","1","1","1","1","1",NULL,,"02224813533","1143","2015-11-05","Y",NULL,NULL,NULL,NULL,NULL,NULL
"205","Jashn - Atria The Millennium Mall Worli","Atria",,"Worli","Mumbai","400018","18.9912503","72.8146107","Maharashtra",,,"1","1","1","1","1","1","1",NULL,,"02232610683","1144","2015-11-05","Y",NULL,NULL,NULL,NULL,NULL,NULL
"206","Allen Solly - Atria The Millennium Mall Worli","Atria",,"Worli","Mumbai","400018","18.9912503","72.8146107","Maharashtra",,,"1","1","1","1","1","1","1",NULL,,"02224813721","1145","2015-11-05","Y",NULL,NULL,NULL,NULL,NULL,NULL
"207","Levi's - Atria The Millennium Mall Worli","Atria",,"Worli","Mumbai","400018","18.9912503","72.8146107","Maharashtra",,,"1","1","1","1","1","1","1",NULL,,"02232189052","1146","2015-11-05","Y",NULL,NULL,NULL,NULL,NULL,NULL
"208","kaya skin clinic - Atria The Millennium Mall Worli","Atria",,"Worli","Mumbai","400018","18.9912503","72.8146107","Maharashtra",,,"1","1","1","1","1","1","1",NULL,,"02267363370","1147","2015-11-05","Y",NULL,NULL,NULL,NULL,NULL,NULL
"209","kaya skin clinic - Atria The Millennium Mall Worli","Atria",,"Worli","Mumbai","400018","18.9912503","72.8146107","Maharashtra",,,"1","1","1","1","1","1","1",NULL,,"02267363370","1147","2015-11-05","Y",NULL,NULL,NULL,NULL,NULL,NULL
"210","Kidology - Atria The Millennium Mall Worli","Atria",,"Worli","Mumbai","400018","18.9912503","72.8146107","Maharashtra",,,"1","1","1","1","1","1","1",NULL,,"02267363630","1148","2015-11-05","Y",NULL,NULL,NULL,NULL,NULL,NULL
"211","Kidville - Atria The Millennium Mall Worli","Atria",,"Worli","Mumbai","400018","18.9912503","72.8146107","Maharashtra",,,"1","1","1","1","1","1","1",NULL,,,"1149","2015-11-05","Y",NULL,NULL,NULL,NULL,NULL,NULL
"212","McDonald's - Big Shopping Centre Thane","Big Shopping Centre, ",,"Thane West","Thane",,"19.2681968","72.9649687","Maharashtra",,,"1","1","1","1","1","1","1",NULL,,"02266000666","1150","2015-11-05","Y",NULL,NULL,NULL,NULL,NULL,NULL
"213","aLL the plus size store - Center One Mall Vashi","Center One Mall, Sector 30/A, 33",,"Vashi","Navi Mumbai","400705","19.067766","72.9950733","Maharashtra",,,"1","1","1","1","1","1","1",NULL,,,"1151","2015-11-05","Y",NULL,NULL,NULL,NULL,NULL,NULL
"214","ARROW - Center One Mall Vashi","Center One Mall, Sector 30/A, 33",,"Vashi","Navi Mumbai","400705","19.067766","72.9950733","Maharashtra",,,"1","1","1","1","1","1","1",NULL,,"02227812317","1152","2015-11-05","Y",NULL,NULL,NULL,NULL,NULL,NULL
"215","Indian Terrain - Center One Mall Vashi","Center One Mall, Sector 30/A, 33",,"Vashi","Navi Mumbai","400705","19.067766","72.9950733","Maharashtra",,,"1","1","1","1","1","1","1",NULL,,"02227812679","1153","2015-11-05","Y",NULL,NULL,NULL,NULL,NULL,NULL
"216","Mom & Me - Center One Mall Vashi","Center One Mall, Sector 30/A, 33",,"Vashi","Navi Mumbai","400705","19.067766","72.9950733","Maharashtra",,,"1","1","1","1","1","1","1",NULL,,"02239251311","1154","2015-11-05","Y",NULL,NULL,NULL,NULL,NULL,NULL
"217","pantaloons - Center One Mall Vashi","Center One Mall, Sector 30/A, 33",,"Vashi","Navi Mumbai","400705","19.067766","72.9950733","Maharashtra",,,"1","1","1","1","1","1","1",NULL,,"02267751234","1155","2015-11-05","Y",NULL,NULL,NULL,NULL,NULL,NULL
"218","Subway - Center One Mall Vashi","Center One Mall, Sector 30/A, 33",,"Vashi","Navi Mumbai","400705","19.067766","72.9950733","Maharashtra",,,"1","1","1","1","1","1","1",NULL,,"02227811456","1156","2015-11-05","Y",NULL,NULL,NULL,NULL,NULL,NULL
"219","Croma - Center One Mall Vashi","Center One Mall, Ground Floor, Sector 30/A, 33",,"Vashi","Navi Mumbai","400705","19.067766","72.9950733","Maharashtra",,,"1","1","1","1","1","1","1",NULL,,,"1157","2015-11-05","Y",NULL,NULL,NULL,NULL,NULL,NULL
"220","Metro Shoes - Center One Mall Vashi","Center One Mall, Ground Floor, Sector 30/A, 33",,"Vashi","Navi Mumbai","400705","19.067766","72.9950733","Maharashtra",,,"1","1","1","1","1","1","1",NULL,,"02227811503","1158","2015-11-05","Y",NULL,NULL,NULL,NULL,NULL,NULL
"221","Planet M - Center One Mall Vashi","Center One Mall, Ground Floor, Sector 30/A, 33",,"Vashi","Navi Mumbai","400705","19.067766","72.9950733","Maharashtra",,,"1","1","1","1","1","1","1",NULL,,"02227814687","1159","2015-11-05","Y",NULL,NULL,NULL,NULL,NULL,NULL
"222","Pure Gold Jewellers & Diamonds - Center One Mall Vashi","Center One Mall, Ground Floor, Sector 30/A, 33",,"Vashi","Navi Mumbai","400705","19.067766","72.9950733","Maharashtra",,,"1","1","1","1","1","1","1",NULL,,"02241239736","1160","2015-11-05","Y",NULL,NULL,NULL,NULL,NULL,NULL
"223","Spykar - Center One Mall Vashi","Center One Mall, Ground Floor, Sector 30/A, 33",,"Vashi","Navi Mumbai","400705","19.067766","72.9950733","Maharashtra",,,"1","1","1","1","1","1","1",NULL,,"02227811944","1161","2015-11-05","Y",NULL,NULL,NULL,NULL,NULL,NULL
"224","John Players - Center One Mall Vashi","Center One Mall, First Floor, Sector 30/A, 33",,"Vashi","Navi Mumbai","400705","19.067766","72.9950733","Maharashtra",,,"1","1","1","1","1","1","1",NULL,,,"1162","2015-11-05","Y",NULL,NULL,NULL,NULL,NULL,NULL
"225","Mufti - Center One Mall Vashi","Center One Mall, First Floor, Sector 30/A, 33",,"Vashi","Navi Mumbai","400705","19.067766","72.9950733","Maharashtra",,,"1","1","1","1","1","1","1",NULL,,"02241237226","1163","2015-11-05","Y",NULL,NULL,NULL,NULL,NULL,NULL
"226","Total Sports & Fitness - Center One Mall Vashi","Center One Mall, First Floor, Sector 30/A, 33",,"Vashi","Navi Mumbai","400705","19.067766","72.9950733","Maharashtra",,,"1","1","1","1","1","1","1",NULL,,"0222781 552","1164","2015-11-05","Y",NULL,NULL,NULL,NULL,NULL,NULL
"227","Soie - Center One Mall Vashi","Center One Mall, Second Floor, Sector 30/A, 33",,"Vashi","Navi Mumbai","400705","19.067766","72.9950733","Maharashtra",,,"1","1","1","1","1","1","1",NULL,,"02278812666","1165","2015-11-05","Y",NULL,NULL,NULL,NULL,NULL,NULL
"228","7D Adventure Ride - Center One Mall Vashi","Center One Mall, Third Floor, Sector 30/A, 33",,"Vashi","Navi Mumbai","400705","19.067766","72.9950733","Maharashtra",,,"1","1","1","1","1","1","1",NULL,,,"1166","2015-11-05","Y",NULL,NULL,NULL,NULL,NULL,NULL
"229","McDonald's - Center One Mall Vashi","Center One Mall, Third Floor, Sector 30/A, 33",,"Vashi","Navi Mumbai","400705","19.067766","72.9950733","Maharashtra",,,"1","1","1","1","1","1","1",NULL,,"02266000666","1150","2015-11-05","Y",NULL,NULL,NULL,NULL,NULL,NULL
"230","Cinemax - City Centre Mall Vashi Navi Mumbai","City Centre Mall",,"Vashi","Navi Mumbai",,"19.08405","73.0049214","Maharashtra",,,"1","1","1","1","1","1","1",NULL,,"02261477700","1167","2015-11-05","Y",NULL,NULL,NULL,NULL,NULL,NULL
"231","Lee - City Centre Mall Vashi Navi Mumbai","City Centre Mall",,"Vashi","Navi Mumbai",,"19.08405","73.0049214","Maharashtra",,,"1","1","1","1","1","1","1",NULL,,,"1168","2015-11-05","Y",NULL,NULL,NULL,NULL,NULL,NULL
"232","Levi's - City Centre Mall Vashi Navi Mumbai","City Centre Mall",,"Vashi","Navi Mumbai",,"19.08405","73.0049214","Maharashtra",,,"1","1","1","1","1","1","1",NULL,,"02227890081","1146","2015-11-05","Y",NULL,NULL,NULL,NULL,NULL,NULL
"233","Rosebys - City Centre Mall Vashi Navi Mumbai","City Centre Mall",,"Vashi","Navi Mumbai",,"19.08405","73.0049214","Maharashtra",,,"1","1","1","1","1","1","1",NULL,,,"1127","2015-11-05","Y",NULL,NULL,NULL,NULL,NULL,NULL
"234","Wrangler - City Centre Mall Vashi Navi Mumbai","City Centre Mall",,"Vashi","Navi Mumbai",,"19.08405","73.0049214","Maharashtra",,,"1","1","1","1","1","1","1",NULL,,,"1169","2015-11-05","Y",NULL,NULL,NULL,NULL,NULL,NULL
"235","Globus - City Centre Mall Vashi Navi Mumbai","City Centre Mall",,"Vashi","Navi Mumbai",,"19.08405","73.0049214","Maharashtra",,,"1","1","1","1","1","1","1",NULL,,"02227662814","1170","2015-11-05","Y",NULL,NULL,NULL,NULL,NULL,NULL
"236","BIBA - City Plaza Mall Santcruz West","City Plaza Shopping Mall, Station Road",,"Santacruz West","Mumbai",,"19.0804805","72.7688594","Maharashtra",,,"1","1","1","1","1","1","1",NULL,,"02226051806","1171","2015-11-05","Y",NULL,NULL,NULL,NULL,NULL,NULL
"237","BIBA - CR2 Mall Nariman Point","CR2 Mall, Barrister Rajni Patel Marg",,"Churchgate","Mumbai","400021","18.926545","72.8226261","Maharashtra",,,"1","1","1","1","1","1","1",NULL,,"2266550409","1171","2015-11-05","Y",NULL,NULL,NULL,NULL,"Monish","2016-02-09 00:00:00"
"238","Chemistry - CR2 Mall Nariman Point","CR2 Mall, Barrister Rajni Patel Marg",,"Churchgate","Mumbai","400021","18.926545","72.8226261","Maharashtra",,,"1","1","1","1","1","1","1",NULL,,"2266547966","1134","2015-11-05","Y",NULL,NULL,NULL,NULL,"Monish","2016-02-09 00:00:00"
"239","Eske - CR2 Mall Nariman Point","CR2 Mall, Barrister Rajni Patel Marg",,"Churchgate","Mumbai","400021","18.926545","72.8226261","Maharashtra",,,"1","1","1","1","1","1","1",NULL,,"2266546884","1172","2015-11-05","Y",NULL,NULL,NULL,NULL,"Monish","2016-02-09 00:00:00"
"240","Ethos Swiss Watch Studios - CR2 Mall Nariman Point","CR2 Mall, Barrister Rajni Patel Marg",,"Churchgate","Mumbai","400021","18.926545","72.8226261","Maharashtra",,,"1","1","1","1","1","1","1",NULL,,"2266550351","1173","2015-11-05","Y",NULL,NULL,NULL,NULL,"Monish","2016-02-09 00:00:00"
"241","Swarovski - CR2 Mall Nariman Point","CR2 Mall, Barrister Rajni Patel Marg",,"Churchgate","Mumbai","400021","18.926545","72.8226261","Maharashtra",,,"1","1","1","1","1","1","1",NULL,,"2266550932","1141","2015-11-05","Y",NULL,NULL,NULL,NULL,"Monish","2016-02-09 00:00:00"
"242","ZODIAC - CR2 Mall Nariman Point","CR2 Mall, Barrister Rajni Patel Marg",,"Churchgate","Mumbai","400021","18.926545","72.8226261","Maharashtra",,,"1","1","1","1","1","1","1",NULL,,"2265917133","1174","2015-11-05","Y",NULL,NULL,NULL,NULL,"Monish","2016-02-09 00:00:00"
"243","HIDESIGN - CR2 Mall Nariman Point","CR2 Mall, Ground Floor, Barrister Rajni Patel Marg",,"Churchgate","Mumbai","400021","18.926545","72.8226261","Maharashtra",,,"1","1","1","1","1","1","1",NULL,,,"1175","2015-11-05","Y",NULL,NULL,NULL,NULL,"Monish","2016-02-09 00:00:00"
"244","Ruby's Bar & Grill - CR2 Mall Nariman Point","CR2 Mall, Ground Floor, Barrister Rajni Patel Marg",,"Churchgate","Mumbai","400021","18.926545","72.8226261","Maharashtra",,,"1","1","1","1","1","1","1",NULL,,"2266510709","1176","2015-11-05","Y",NULL,NULL,NULL,NULL,"Monish","2016-02-09 00:00:00"
"245","Spaghetti Kitchen - CR2 Mall Nariman Point","CR2 Mall, First Floor, Barrister Rajni Patel Marg",,"Churchgate","Mumbai","400021","18.926545","72.8226261","Maharashtra",,,"1","1","1","1","1","1","1",NULL,,"2267439430","1177","2015-11-05","Y",NULL,NULL,NULL,NULL,"Monish","2016-02-09 00:00:00"
"246","Subway - CR2 Mall Nariman Point","CR2 Mall, First Floor, Barrister Rajni Patel Marg",,"Churchgate","Mumbai","400021","18.926545","72.8226261","Maharashtra",,,"1","1","1","1","1","1","1",NULL,,"2265205135","1156","2015-11-05","Y",NULL,NULL,NULL,NULL,"Monish","2016-02-09 00:00:00"
"247","INOX - CR2 Mall Nariman Point","CR2 Mall, Second Floor, Barrister Rajni Patel Marg",,"Churchgate","Mumbai","400021","18.926545","72.8226261","Maharashtra",,,"1","1","1","1","1","1","1",NULL,,"2266595959","1178","2015-11-05","Y",NULL,NULL,NULL,NULL,"Monish","2016-02-09 00:00:00"
"248","aLL the plus size store - Crossroads Mall Haji Ali","SoBo Central, Pandit Malviya Road",,"Haji Ali","Mumbai","400034","18.9758161","72.8120429","Maharashtra",,,"1","1","1","1","1","1","1",NULL,,,"1151","2015-11-05","Y",NULL,NULL,NULL,NULL,NULL,NULL
"249","Celio - Crossroads Mall Haji Ali","SoBo Central, Pandit Malviya Road",,"Haji Ali","Mumbai","400034","18.9758161","72.8120429","Maharashtra",,,"1","1","1","1","1","1","1",NULL,,"02230008232","1179","2015-11-05","Y",NULL,NULL,NULL,NULL,NULL,NULL
"250","McDonald's - Crossroads Mall Haji Ali","SoBo Central, Pandit Malviya Road",,"Haji Ali","Mumbai","400034","18.9758161","72.8120429","Maharashtra",,,"1","1","1","1","1","1","1",NULL,,"02266000666","1150","2015-11-05","Y",NULL,NULL,NULL,NULL,NULL,NULL
"251","Swarovski - Crossroads Mall Haji Ali","SoBo Central, Pandit Malviya Road",,"Haji Ali","Mumbai","400034","18.9758161","72.8120429","Maharashtra",,,"1","1","1","1","1","1","1",NULL,,"02266602120","1141","2015-11-05","Y",NULL,NULL,NULL,NULL,NULL,NULL
"252","Catwalk - Crossroads Mall Haji Ali","SoBo Central, Ground Floor, Pandit Malviya Road",,"Haji Ali","Mumbai","400034","18.9758161","72.8120429","Maharashtra",,,"1","1","1","1","1","1","1",NULL,,"02230008232","1132","2015-11-05","Y",NULL,NULL,NULL,NULL,NULL,NULL
"253","Lee - Dattani Square Mall Vasai","Dattani Square Mall, First Floor, Dattani Village, Near Telephone Exchange, Papdi Road",,"Vasai West","Thane","401202","19.3592535","72.8122199","Maharashtra",,,"1","1","1","1","1","1","1",NULL,,,"1168","2015-11-05","Y",NULL,NULL,NULL,NULL,NULL,NULL
"254","CLINIQUE - Dynamix Mall Juhu","Dynamix Mall, Jvpd Scheme, St Snyaneshwar Marg","Next to Chandan Cinema","Juhu","Mumbai","400049","19.1147217","72.8273751","Maharashtra",,,"1","1","1","1","1","1","1",NULL,,,"1180","2015-11-05","Y",NULL,NULL,NULL,NULL,NULL,NULL
"255","Esprit - Dynamix Mall Juhu","Dynamix Mall, Jvpd Scheme, St Snyaneshwar Marg","Next to Chandan Cinema","Juhu","Mumbai","400049","19.1147217","72.8273751","Maharashtra",,,"1","1","1","1","1","1","1",NULL,,,"1181","2015-11-05","Y",NULL,NULL,NULL,NULL,NULL,NULL
"256","M.A.C - Dynamix Mall Juhu","Dynamix Mall, Jvpd Scheme, St Snyaneshwar Marg","Next to Chandan Cinema","Juhu","Mumbai","400049","19.1147217","72.8273751","Maharashtra",,,"1","1","1","1","1","1","1",NULL,,"02226705603","1182","2015-11-05","Y",NULL,NULL,NULL,NULL,NULL,NULL
"257","SHOPPERS STOP - Dynamix Mall Juhu","Dynamix Mall, Jvpd Scheme, St Snyaneshwar Marg","Next to Chandan Cinema","Juhu","Mumbai","400049","19.1147217","72.8273751","Maharashtra",,,"1","1","1","1","1","1","1",NULL,,"02226256271","1183","2015-11-05","Y",NULL,NULL,NULL,NULL,NULL,NULL
"258","TOMMY HILFIGER - Dynamix Mall Juhu","Dynamix Mall, Jvpd Scheme, St Snyaneshwar Marg","Next to Chandan Cinema","Juhu","Mumbai","400049","19.1147217","72.8273751","Maharashtra",,,"1","1","1","1","1","1","1",NULL,,"02226256271","1184","2015-11-05","Y",NULL,NULL,NULL,NULL,NULL,NULL
"259","Crossword Book Store - Dynamix Mall Juhu","Dynamix Mall, Ground Floor, Jvpd Scheme, St Snyaneshwar Marg","Next to Chandan Cinema","Juhu","Mumbai","400049","19.1147217","72.8273751","Maharashtra",,,"1","1","1","1","1","1","1",NULL,,"02226256317","1185","2015-11-05","Y",NULL,NULL,NULL,NULL,NULL,NULL
"260","PVR Cinemas - Dynamix Mall Juhu","Dynamix Mall, Fifth Floor, Jvpd Scheme, St Snyaneshwar Marg","Next to Chandan Cinema","Juhu","Mumbai","400049","19.1147217","72.8273751","Maharashtra",,,"1","1","1","1","1","1","1",NULL,,"8800900009","1186","2015-11-05","Y",NULL,NULL,NULL,NULL,NULL,NULL
"261","Cinemax - Eternity Mall Thane","Eternity Mall, LBS Road",,"Thane West","Thane",,"19.1871543","72.9627891","Maharashtra",,,"1","1","1","1","1","1","1",NULL,,"02261476612","1167","2015-11-05","Y",NULL,NULL,NULL,NULL,NULL,NULL
"262","Globus - Eternity Mall Thane","Eternity Mall, LBS Road",,"Thane West","Thane",,"19.1871543","72.9627891","Maharashtra",,,"1","1","1","1","1","1","1",NULL,,"02225804906","1170","2015-11-05","Y",NULL,NULL,NULL,NULL,NULL,NULL
"263","John Players - Eternity Mall Thane","Eternity Mall, Ground Floor, LBS Road",,"Thane West","Thane",,"19.1871543","72.9627891","Maharashtra",,,"1","1","1","1","1","1","1",NULL,,"02225801525","1162","2015-11-05","Y",NULL,NULL,NULL,NULL,NULL,NULL
"264","Planet M - Eternity Mall Thane","Eternity Mall, Ground Floor, LBS Road",,"Thane West","Thane",,"19.1871543","72.9627891","Maharashtra",,,"1","1","1","1","1","1","1",NULL,,"02265292744","1159","2015-11-05","Y",NULL,NULL,NULL,NULL,NULL,NULL
"265","McDonald's - Evershine Mall Malad","Evershine Mall, Ground Floor, Link Road,","Near Mind Space","Malad West,","Mumbai","400064","19.1791203","72.8361517","Maharashtra",,,"1","1","1","1","1","1","1",NULL,,"02266000666","1150","2015-11-05","Y",NULL,NULL,NULL,NULL,NULL,NULL
"266","The Irish House - Fun Republic Andheri","Fun Republic, First Floor, Plot No.844/4, Veera Desai Road, Shah Industrial Estate",,"Andheri West","Mumbai","400053","19.1347497","72.832778","Maharashtra",,,"1","1","1","1","1","1","1",NULL,,"2261046161","1187","2015-11-05","Y",NULL,NULL,NULL,NULL,"Monish","2016-02-09 00:00:00"
"267","Aldo - G7 Mall Seven Bunglow Andheri West","G7 Mall, Seven Bunglow, J.P.Road",,"Andheri West","Mumbai","400053","19.1309678","72.8200503","Maharashtra",,,"1","1","1","1","1","1","1",NULL,,"2232221157","1120","2015-11-05","Y",NULL,NULL,NULL,NULL,"Monish","2016-02-09 00:00:00"
"268","Inglot - G7 Mall Seven Bunglow Andheri West","G7 Mall, Seven Bunglow, J.P.Road",,"Andheri West","Mumbai","400053","19.1309678","72.8200503","Maharashtra",,,"1","1","1","1","1","1","1",NULL,,"2226399377","1188","2015-11-05","Y",NULL,NULL,NULL,NULL,"Monish","2016-02-09 00:00:00"
"269","Queue Up - G7 Mall Seven Bunglow Andheri West","G7 Mall, Seven Bunglow, J.P.Road",,"Andheri West","Mumbai","400053","19.1309678","72.8200503","Maharashtra",,,"1","1","1","1","1","1","1",NULL,,,"1126","2015-11-05","Y",NULL,NULL,NULL,NULL,"Monish","2016-02-09 00:00:00"
"270","Charles & Keith - G7 Mall Seven Bunglow Andheri West","G7 Mall, Ground Floor, Seven Bunglow, J.P.Road",,"Andheri West","Mumbai","400053","19.1309678","72.8200503","Maharashtra",,,"1","1","1","1","1","1","1",NULL,,"2232221156","1133","2015-11-05","Y",NULL,NULL,NULL,NULL,"Monish","2016-02-09 00:00:00"
"271","Chemistry - G7 Mall Seven Bunglow Andheri West","G7 Mall, Ground Floor, Seven Bunglow, J.P.Road",,"Andheri West","Mumbai","400053","19.1309678","72.8200503","Maharashtra",,,"1","1","1","1","1","1","1",NULL,,,"1134","2015-11-05","Y",NULL,NULL,NULL,NULL,"Monish","2016-02-09 00:00:00"
"272","Iraya - G7 Mall Seven Bunglow Andheri West","G7 Mall, Ground Floor, Seven Bunglow, J.P.Road",,"Andheri West","Mumbai","400053","19.1309678","72.8200503","Maharashtra",,,"1","1","1","1","1","1","1",NULL,,"2226326837","1189","2015-11-05","Y",NULL,NULL,NULL,NULL,"Monish","2016-02-09 00:00:00"
"273","La Senza - G7 Mall Seven Bunglow Andheri West","G7 Mall, Ground Floor, Seven Bunglow, J.P.Road",,"Andheri West","Mumbai","400053","19.1309678","72.8200503","Maharashtra",,,"1","1","1","1","1","1","1",NULL,,"2232221143","1137","2015-11-05","Y",NULL,NULL,NULL,NULL,"Monish","2016-02-09 00:00:00"
"274","Mango - G7 Mall Seven Bunglow Andheri West","G7 Mall, Ground Floor, Seven Bunglow, J.P.Road",,"Andheri West","Mumbai","400053","19.1309678","72.8200503","Maharashtra",,,"1","1","1","1","1","1","1",NULL,,"2226399368","1138","2015-11-05","Y",NULL,NULL,NULL,NULL,"Monish","2016-02-09 00:00:00"
"275","Nine West - G7 Mall Seven Bunglow Andheri West","G7 Mall, Ground Floor, Seven Bunglow, J.P.Road",,"Andheri West","Mumbai","400053","19.1309678","72.8200503","Maharashtra",,,"1","1","1","1","1","1","1",NULL,,,"1190","2015-11-05","Y",NULL,NULL,NULL,NULL,"Monish","2016-02-09 00:00:00"
"276","Promod - G7 Mall Seven Bunglow Andheri West","G7 Mall, Ground Floor, Seven Bunglow, J.P.Road",,"Andheri West","Mumbai","400053","19.1309678","72.8200503","Maharashtra",,,"1","1","1","1","1","1","1",NULL,,"2232221162","1140","2015-11-05","Y",NULL,NULL,NULL,NULL,"Monish","2016-02-09 00:00:00"
"277","ARROW - Growel's 101 Kandivali East","Growels 101 Mall, Akurli Road, Off Western Express Highway",,"Kandivali East","Mumbai","400101","19.2033141","72.8595953","Maharashtra",,,"1","1","1","1","1","1","1",NULL,,"02266718740","1152","2015-11-05","Y",NULL,NULL,NULL,NULL,NULL,NULL
"278","Cinemax - Growel's 101 Kandivali East","Growels 101 Mall, Akurli Road, Off Western Express Highway",,"Kandivali East","Mumbai","400101","19.2033141","72.8595953","Maharashtra",,,"1","1","1","1","1","1","1",NULL,,"02261474444","1167","2015-11-05","Y",NULL,NULL,NULL,NULL,NULL,NULL
"279","Crossword Book Store - Growel's 101 Kandivali East","Growels 101 Mall, Akurli Road, Off Western Express Highway",,"Kandivali East","Mumbai","400101","19.2033141","72.8595953","Maharashtra",,,"1","1","1","1","1","1","1",NULL,,,"1185","2015-11-05","Y",NULL,NULL,NULL,NULL,NULL,NULL
"280","pantaloons - Growel's 101 Kandivali East","Growels 101 Mall, Akurli Road, Off Western Express Highway",,"Kandivali East","Mumbai","400101","19.2033141","72.8595953","Maharashtra",,,"1","1","1","1","1","1","1",NULL,,"02267109610","1155","2015-11-05","Y",NULL,NULL,NULL,NULL,NULL,NULL
"281","Passion United Astro Field - Growel's 101 Kandivali East","Growels 101 Mall, Akurli Road, Off Western Express Highway",,"Kandivali East","Mumbai","400101","19.2033141","72.8595953","Maharashtra",,,"1","1","1","1","1","1","1",NULL,,,"1191","2015-11-05","Y",NULL,NULL,NULL,NULL,NULL,NULL
"282","AND - Growel's 101 Kandivali East","Growels 101 Mall, Ground Floor, Akurli Road, Off Western Express Highway",,"Kandivali East","Mumbai","400101","19.2033141","72.8595953","Maharashtra",,,"1","1","1","1","1","1","1",NULL,,"02265182378","1130","2015-11-05","Y",NULL,NULL,NULL,NULL,NULL,NULL
"283","Ayesha Accessories - Growel's 101 Kandivali East","Growels 101 Mall, Ground Floor, Akurli Road, Off Western Express Highway",,"Kandivali East","Mumbai","400101","19.2033141","72.8595953","Maharashtra",,,"1","1","1","1","1","1","1",NULL,,"02228846678","1192","2015-11-05","Y",NULL,NULL,NULL,NULL,NULL,NULL
"284","Celio - Growel's 101 Kandivali East","Growels 101 Mall, Ground Floor, Akurli Road, Off Western Express Highway",,"Kandivali East","Mumbai","400101","19.2033141","72.8595953","Maharashtra",,,"1","1","1","1","1","1","1",NULL,,"02265294469","1179","2015-11-05","Y",NULL,NULL,NULL,NULL,NULL,NULL
"285","COSTA COFFEE - Growel's 101 Kandivali East","Growels 101 Mall, Ground Floor, Akurli Road, Off Western Express Highway",,"Kandivali East","Mumbai","400101","19.2033141","72.8595953","Maharashtra",,,"1","1","1","1","1","1","1",NULL,,"02267250548","1124","2015-11-05","Y",NULL,NULL,NULL,NULL,NULL,NULL
"286","Enrich Salon & Academy - Growel's 101 Kandivali East","Growels 101 Mall, Ground Floor, Akurli Road, Off Western Express Highway",,"Kandivali East","Mumbai","400101","19.2033141","72.8595953","Maharashtra",,,"1","1","1","1","1","1","1",NULL,,"02267586698","1193","2015-11-05","Y",NULL,NULL,NULL,NULL,NULL,NULL
"287","Foresight Opticals - Growel's 101 Kandivali East","Growels 101 Mall, Ground Floor, Akurli Road, Off Western Express Highway",,"Kandivali East","Mumbai","400101","19.2033141","72.8595953","Maharashtra",,,"1","1","1","1","1","1","1",NULL,,"02228870312","1194","2015-11-05","Y",NULL,NULL,NULL,NULL,NULL,NULL
"288","Gitanjali Jewels - Growel's 101 Kandivali East","Growels 101 Mall, Ground Floor, Akurli Road, Off Western Express Highway",,"Kandivali East","Mumbai","400101","19.2033141","72.8595953","Maharashtra",,,"1","1","1","1","1","1","1",NULL,,"02267104867","1195","2015-11-05","Y",NULL,NULL,NULL,NULL,NULL,NULL
"289","Globus - Growel's 101 Kandivali East","Growels 101 Mall, Ground Floor, Akurli Road, Off Western Express Highway",,"Kandivali East","Mumbai","400101","19.2033141","72.8595953","Maharashtra",,,"1","1","1","1","1","1","1",NULL,,"02228866946","1170","2015-11-05","Y",NULL,NULL,NULL,NULL,NULL,NULL
"290","HIDESIGN - Growel's 101 Kandivali East","Growels 101 Mall, Ground Floor, Akurli Road, Off Western Express Highway",,"Kandivali East","Mumbai","400101","19.2033141","72.8595953","Maharashtra",,,"1","1","1","1","1","1","1",NULL,,"02265205553","1175","2015-11-05","Y",NULL,NULL,NULL,NULL,NULL,NULL
"291","KAZO - Growel's 101 Kandivali East","Growels 101 Mall, Ground Floor, Akurli Road, Off Western Express Highway",,"Kandivali East","Mumbai","400101","19.2033141","72.8595953","Maharashtra",,,"1","1","1","1","1","1","1",NULL,,"02267585429","1196","2015-11-05","Y",NULL,NULL,NULL,NULL,NULL,NULL
"292","Levi's - Growel's 101 Kandivali East","Growels 101 Mall, Ground Floor, Akurli Road, Off Western Express Highway",,"Kandivali East","Mumbai","400101","19.2033141","72.8595953","Maharashtra",,,"1","1","1","1","1","1","1",NULL,,"02266981610","1146","2015-11-05","Y",NULL,NULL,NULL,NULL,NULL,NULL
"293","McDonald's - Growel's 101 Kandivali East","Growels 101 Mall, Ground Floor, Akurli Road, Off Western Express Highway",,"Kandivali East","Mumbai","400101","19.2033141","72.8595953","Maharashtra",,,"1","1","1","1","1","1","1",NULL,,"02266000666","1150","2015-11-05","Y",NULL,NULL,NULL,NULL,NULL,NULL
"294","Mochi - Growel's 101 Kandivali East","Growels 101 Mall, Ground Floor, Akurli Road, Off Western Express Highway",,"Kandivali East","Mumbai","400101","19.2033141","72.8595953","Maharashtra",,,"1","1","1","1","1","1","1",NULL,,"02228873315","1197","2015-11-05","Y",NULL,NULL,NULL,NULL,NULL,NULL
"295","Basics Life - Growel's 101 Kandivali East","Growels 101 Mall, First Floor, Akurli Road, Off Western Express Highway",,"Kandivali East","Mumbai","400101","19.2033141","72.8595953","Maharashtra",,,"1","1","1","1","1","1","1",NULL,,"02267108093","1198","2015-11-05","Y",NULL,NULL,NULL,NULL,NULL,NULL
"296","Bombay High Fashions - Growel's 101 Kandivali East","Growels 101 Mall, First Floor, Akurli Road, Off Western Express Highway",,"Kandivali East","Mumbai","400101","19.2033141","72.8595953","Maharashtra",,,"1","1","1","1","1","1","1",NULL,,"02228843065","1199","2015-11-05","Y",NULL,NULL,NULL,NULL,NULL,NULL
"297","eZone - Growel's 101 Kandivali East","Growels 101 Mall, First Floor, Akurli Road, Off Western Express Highway",,"Kandivali East","Mumbai","400101","19.2033141","72.8595953","Maharashtra",,,"1","1","1","1","1","1","1",NULL,,"02267582415","1200","2015-11-05","Y",NULL,NULL,NULL,NULL,NULL,NULL
"298","John Players - Growel's 101 Kandivali East","Growels 101 Mall, First Floor, Akurli Road, Off Western Express Highway",,"Kandivali East","Mumbai","400101","19.2033141","72.8595953","Maharashtra",,,"1","1","1","1","1","1","1",NULL,,"02267416370","1162","2015-11-05","Y",NULL,NULL,NULL,NULL,NULL,NULL
"299","Mufti - Growel's 101 Kandivali East","Growels 101 Mall, First Floor, Akurli Road, Off Western Express Highway",,"Kandivali East","Mumbai","400101","19.2033141","72.8595953","Maharashtra",,,"1","1","1","1","1","1","1",NULL,,,"1163","2015-11-05","Y",NULL,NULL,NULL,NULL,NULL,NULL
"300","PROVOGUE - Growel's 101 Kandivali East","Growels 101 Mall, First Floor, Akurli Road, Off Western Express Highway",,"Kandivali East","Mumbai","400101","19.2033141","72.8595953","Maharashtra",,,"1","1","1","1","1","1","1",NULL,,,"1201","2015-11-05","Y",NULL,NULL,NULL,NULL,NULL,NULL
"301","Spykar - Growel's 101 Kandivali East","Growels 101 Mall, First Floor, Akurli Road, Off Western Express Highway",,"Kandivali East","Mumbai","400101","19.2033141","72.8595953","Maharashtra",,,"1","1","1","1","1","1","1",NULL,,"02261275530","1161","2015-11-05","Y",NULL,NULL,NULL,NULL,NULL,NULL
"302","Timezone - Growel's 101 Kandivali East","Growels 101 Mall, First Floor, Akurli Road, Off Western Express Highway",,"Kandivali East","Mumbai","400101","19.2033141","72.8595953","Maharashtra",,,"1","1","1","1","1","1","1",NULL,,"02261273174","1202","2015-11-05","Y",NULL,NULL,NULL,NULL,NULL,NULL
"303","Barbie Store - Growel's 101 Kandivali East","Growels 101 Mall, Second Floor, Akurli Road, Off Western Express Highway",,"Kandivali East","Mumbai","400101","19.2033141","72.8595953","Maharashtra",,,"1","1","1","1","1","1","1",NULL,,"02267251951","1203","2015-11-05","Y",NULL,NULL,NULL,NULL,NULL,NULL
"304","Ethnicity - Growel's 101 Kandivali East","Growels 101 Mall, Second Floor, Akurli Road, Off Western Express Highway",,"Kandivali East","Mumbai","400101","19.2033141","72.8595953","Maharashtra",,,"1","1","1","1","1","1","1",NULL,,"02267107618","1204","2015-11-05","Y",NULL,NULL,NULL,NULL,NULL,NULL
"305","Global Desi - Growel's 101 Kandivali East","Growels 101 Mall, Second Floor, Akurli Road, Off Western Express Highway",,"Kandivali East","Mumbai","400101","19.2033141","72.8595953","Maharashtra",,,"1","1","1","1","1","1","1",NULL,,"02265258062","1205","2015-11-05","Y",NULL,NULL,NULL,NULL,NULL,NULL
"306","Jashn - Growel's 101 Kandivali East","Growels 101 Mall, Second Floor, Akurli Road, Off Western Express Highway",,"Kandivali East","Mumbai","400101","19.2033141","72.8595953","Maharashtra",,,"1","1","1","1","1","1","1",NULL,,"02267254903","1144","2015-11-05","Y",NULL,NULL,NULL,NULL,NULL,NULL
"307","Mainland China - Growel's 101 Kandivali East","Growels 101 Mall, Second Floor, Akurli Road, Off Western Express Highway",,"Kandivali East","Mumbai","400101","19.2033141","72.8595953","Maharashtra",,,"1","1","1","1","1","1","1",NULL,,"02267067700","1206","2015-11-05","Y",NULL,NULL,NULL,NULL,NULL,NULL
"308","Thai Elements Spa - Growel's 101 Kandivali East","Growels 101 Mall, Second Floor, Akurli Road, Off Western Express Highway",,"Kandivali East","Mumbai","400101","19.2033141","72.8595953","Maharashtra",,,"1","1","1","1","1","1","1",NULL,,"02228853177","1207","2015-11-05","Y",NULL,NULL,NULL,NULL,NULL,NULL
"309","Cookie Man - Growel's 101 Kandivali East","Growels 101 Mall, Third Floor, Akurli Road, Off Western Express Highway",,"Kandivali East","Mumbai","400101","19.2033141","72.8595953","Maharashtra",,,"1","1","1","1","1","1","1",NULL,,,"1208","2015-11-05","Y",NULL,NULL,NULL,NULL,NULL,NULL
"310","Helion Entertainment - Growel's 101 Kandivali East","Growels 101 Mall, Third Floor, Akurli Road, Off Western Express Highway",,"Kandivali East","Mumbai","400101","19.2033141","72.8595953","Maharashtra",,,"1","1","1","1","1","1","1",NULL,,"02228846260","1209","2015-11-05","Y",NULL,NULL,NULL,NULL,NULL,NULL
"311","Subway - Growel's 101 Kandivali East","Growels 101 Mall, Third Floor, Akurli Road, Off Western Express Highway",,"Kandivali East","Mumbai","400101","19.2033141","72.8595953","Maharashtra",,,"1","1","1","1","1","1","1",NULL,,"02267585400","1156","2015-11-05","Y",NULL,NULL,NULL,NULL,NULL,NULL
"312","Zaffran - Growel's 101 Kandivali East","Growels 101 Mall, Third Floor, Akurli Road, Off Western Express Highway",,"Kandivali East","Mumbai","400101","19.2033141","72.8595953","Maharashtra",,,"1","1","1","1","1","1","1",NULL,,"02261278857","1210","2015-11-05","Y",NULL,NULL,NULL,NULL,NULL,NULL
"313","Westside - Haiko Mall Powai","Haiko Mall, Hiranandani Gardens, Central Avenue",,"Powai","Mumbai","400076","19.1239285","72.9094407","Maharashtra",,,"1","1","1","1","1","1","1",NULL,,"02267424560","1211","2015-11-05","Y",NULL,NULL,NULL,NULL,NULL,NULL
"314","COSTA COFFEE - Haiko Mall Powai","Haiko Mall, Ground Floor, Hiranandani Gardens, Central Avenue",,"Powai","Mumbai","400076","19.1239285","72.9094407","Maharashtra",,,"1","1","1","1","1","1","1",NULL,,"02249172903","1124","2015-11-05","Y",NULL,NULL,NULL,NULL,NULL,NULL
"315","Crossword Book Store - Haiko Mall Powai","Haiko Mall, Ground Floor, Hiranandani Gardens, Central Avenue",,"Powai","Mumbai","400076","19.1239285","72.9094407","Maharashtra",,,"1","1","1","1","1","1","1",NULL,,"02225797973","1185","2015-11-05","Y",NULL,NULL,NULL,NULL,NULL,NULL
"316","Planet M - Haiko Mall Powai","Haiko Mall, Ground Floor, Hiranandani Gardens, Central Avenue",,"Powai","Mumbai","400076","19.1239285","72.9094407","Maharashtra",,,"1","1","1","1","1","1","1",NULL,,"02240797788","1159","2015-11-05","Y",NULL,NULL,NULL,NULL,NULL,NULL
"317","eZone - Haiko Mall Powai","Haiko Mall, Second Floor, Hiranandani Gardens, Central Avenue",,"Powai","Mumbai","400076","19.1239285","72.9094407","Maharashtra",,,"1","1","1","1","1","1","1",NULL,,"02225717355","1200","2015-11-05","Y",NULL,NULL,NULL,NULL,NULL,NULL
"318","Nyassa - Haiko Mall Powai","Haiko Mall, Second Floor, Hiranandani Gardens, Central Avenue",,"Powai","Mumbai","400076","19.1239285","72.9094407","Maharashtra",,,"1","1","1","1","1","1","1",NULL,,,"1212","2015-11-05","Y",NULL,NULL,NULL,NULL,NULL,NULL
"319","Carnival Cinemas - Harmony Mall Goregaon","Harmony Mall, Second Floor, Link Road, Colony No 1",,"Goregaon West","Mumbai","400104","19.1574558","72.8349404","Maharashtra",,,"1","1","1","1","1","1","1",NULL,,,"1213","2015-11-05","Y",NULL,NULL,NULL,NULL,NULL,NULL
"320","Brand Factory - High Street Mall Thane","High Street Mall, Old Agrea Road, Sainath Nagar",,"Majiwada","Thane","400607","19.2171733","72.9789809","Maharashtra",,,"1","1","1","1","1","1","1",NULL,,"02230659237","1214","2015-11-05","Y",NULL,NULL,NULL,NULL,NULL,NULL
"321","Vision Express - High Street Mall Thane","High Street Mall, Ground Floor, Old Agrea Road, Sainath Nagar",,"Majiwada","Thane","400607","19.2171733","72.9789809","Maharashtra",,,"1","1","1","1","1","1","1",NULL,,"02225452176","1215","2015-11-05","Y",NULL,NULL,NULL,NULL,NULL,NULL
"322","Anita Dongre - High Street Phoenix Lower Parel","High Street Phoenix Mall , Senapati Bapat Marg",,"Lower Parel","Mumbai","400013","18.9961651","72.8265085","Maharashtra",,,"1","1","1","1","1","1","1",NULL,,"02267438984","1216","2015-11-05","Y",NULL,NULL,NULL,NULL,NULL,NULL
"323","BIBA - High Street Phoenix Lower Parel","High Street Phoenix Mall , Senapati Bapat Marg",,"Lower Parel","Mumbai","400013","18.9961651","72.8265085","Maharashtra",,,"1","1","1","1","1","1","1",NULL,,"02224984513","1171","2015-11-05","Y",NULL,NULL,NULL,NULL,NULL,NULL
"324","Bombay Blue - High Street Phoenix Lower Parel","High Street Phoenix Mall , Senapati Bapat Marg",,"Lower Parel","Mumbai","400013","18.9961651","72.8265085","Maharashtra",,,"1","1","1","1","1","1","1",NULL,,"02224961999","1217","2015-11-05","Y",NULL,NULL,NULL,NULL,NULL,NULL
"325","Burger King - High Street Phoenix Lower Parel","High Street Phoenix Mall , Senapati Bapat Marg",,"Lower Parel","Mumbai","400013","18.9961651","72.8265085","Maharashtra",,,"1","1","1","1","1","1","1",NULL,,,"1218","2015-11-05","Y",NULL,NULL,NULL,NULL,NULL,NULL
"326","CHICCO - High Street Phoenix Lower Parel","High Street Phoenix Mall , Senapati Bapat Marg",,"Lower Parel","Mumbai","400013","18.9961651","72.8265085","Maharashtra",,,"1","1","1","1","1","1","1",NULL,,"02240044493","1219","2015-11-05","Y",NULL,NULL,NULL,NULL,NULL,NULL
"327","Copper Chimney - High Street Phoenix Lower Parel","High Street Phoenix Mall , Senapati Bapat Marg",,"Lower Parel","Mumbai","400013","18.9961651","72.8265085","Maharashtra",,,"1","1","1","1","1","1","1",NULL,,"02224964333","1220","2015-11-05","Y",NULL,NULL,NULL,NULL,NULL,NULL
"328","COSTA COFFEE - High Street Phoenix Lower Parel","High Street Phoenix Mall , Senapati Bapat Marg",,"Lower Parel","Mumbai","400013","18.9961651","72.8265085","Maharashtra",,,"1","1","1","1","1","1","1",NULL,,"02243474011","1124","2015-11-05","Y",NULL,NULL,NULL,NULL,NULL,NULL
"329","Cottonworld - High Street Phoenix Lower Parel","High Street Phoenix Mall , Senapati Bapat Marg",,"Lower Parel","Mumbai","400013","18.9961651","72.8265085","Maharashtra",,,"1","1","1","1","1","1","1",NULL,,"02224918802","1221","2015-11-05","Y",NULL,NULL,NULL,NULL,NULL,NULL
"330","Croma - High Street Phoenix Lower Parel","High Street Phoenix Mall , Senapati Bapat Marg",,"Lower Parel","Mumbai","400013","18.9961651","72.8265085","Maharashtra",,,"1","1","1","1","1","1","1",NULL,,,"1157","2015-11-05","Y",NULL,NULL,NULL,NULL,NULL,NULL
"331","D'damas - High Street Phoenix Lower Parel","High Street Phoenix Mall , Senapati Bapat Marg",,"Lower Parel","Mumbai","400013","18.9961651","72.8265085","Maharashtra",,,"1","1","1","1","1","1","1",NULL,,,"1222","2015-11-05","Y",NULL,NULL,NULL,NULL,NULL,NULL
"332","Elite Fish Pedicure - High Street Phoenix Lower Parel","High Street Phoenix Mall , Senapati Bapat Marg",,"Lower Parel","Mumbai","400013","18.9961651","72.8265085","Maharashtra",,,"1","1","1","1","1","1","1",NULL,,"9833222442","1223","2015-11-05","Y",NULL,NULL,NULL,NULL,NULL,NULL
"333","Episode - High Street Phoenix Lower Parel","High Street Phoenix Mall , Senapati Bapat Marg",,"Lower Parel","Mumbai","400013","18.9961651","72.8265085","Maharashtra",,,"1","1","1","1","1","1","1",NULL,,"02224905050","1119","2015-11-05","Y",NULL,NULL,NULL,NULL,NULL,NULL
"334","Fabindia - High Street Phoenix Lower Parel","High Street Phoenix Mall , Senapati Bapat Marg",,"Lower Parel","Mumbai","400013","18.9961651","72.8265085","Maharashtra",,,"1","1","1","1","1","1","1",NULL,,"02224932351","1224","2015-11-05","Y",NULL,NULL,NULL,NULL,NULL,NULL
"335","FACES Cosmetics - High Street Phoenix Lower Parel","High Street Phoenix Mall , Senapati Bapat Marg",,"Lower Parel","Mumbai","400013","18.9961651","72.8265085","Maharashtra",,,"1","1","1","1","1","1","1",NULL,,"02267493073","1225","2015-11-05","Y",NULL,NULL,NULL,NULL,NULL,NULL
"336","FOREVER NEW - High Street Phoenix Lower Parel","High Street Phoenix Mall , Senapati Bapat Marg",,"Lower Parel","Mumbai","400013","18.9961651","72.8265085","Maharashtra",,,"1","1","1","1","1","1","1",NULL,,"02240040289","1226","2015-11-05","Y",NULL,NULL,NULL,NULL,NULL,NULL
"337","Haagen-Dazs - High Street Phoenix Lower Parel","High Street Phoenix Mall , Senapati Bapat Marg",,"Lower Parel","Mumbai","400013","18.9961651","72.8265085","Maharashtra",,,"1","1","1","1","1","1","1",NULL,,"02243474445","1227","2015-11-05","Y",NULL,NULL,NULL,NULL,NULL,NULL
"338","Hamleys - High Street Phoenix Lower Parel","High Street Phoenix Mall , Senapati Bapat Marg",,"Lower Parel","Mumbai","400013","18.9961651","72.8265085","Maharashtra",,,"1","1","1","1","1","1","1",NULL,,"02243473444","1228","2015-11-05","Y",NULL,NULL,NULL,NULL,NULL,NULL
"339","Lancome - High Street Phoenix Lower Parel","High Street Phoenix Mall , Senapati Bapat Marg",,"Lower Parel","Mumbai","400013","18.9961651","72.8265085","Maharashtra",,,"1","1","1","1","1","1","1",NULL,,"02232095531","1229","2015-11-05","Y",NULL,NULL,NULL,NULL,NULL,NULL
"340","Lancome - High Street Phoenix Lower Parel","High Street Phoenix Mall , Senapati Bapat Marg",,"Lower Parel","Mumbai","400013","18.9961651","72.8265085","Maharashtra",,,"1","1","1","1","1","1","1",NULL,,"02232095531","1229","2015-11-05","Y",NULL,NULL,NULL,NULL,NULL,NULL
"341","Levi's - High Street Phoenix Lower Parel","High Street Phoenix Mall , Senapati Bapat Marg",,"Lower Parel","Mumbai","400013","18.9961651","72.8265085","Maharashtra",,,"1","1","1","1","1","1","1",NULL,,"02266155005","1146","2015-11-05","Y",NULL,NULL,NULL,NULL,NULL,NULL
"342","Louis Philippe - High Street Phoenix Lower Parel","High Street Phoenix Mall , Senapati Bapat Marg",,"Lower Parel","Mumbai","400013","18.9961651","72.8265085","Maharashtra",,,"1","1","1","1","1","1","1",NULL,,"02266669129","1230","2015-11-05","Y",NULL,NULL,NULL,NULL,NULL,NULL
"343","LUSH - High Street Phoenix Lower Parel","High Street Phoenix Mall , Senapati Bapat Marg",,"Lower Parel","Mumbai","400013","18.9961651","72.8265085","Maharashtra",,,"1","1","1","1","1","1","1",NULL,,"02224975519","1231","2015-11-05","Y",NULL,NULL,NULL,NULL,NULL,NULL
"344","Mai Tai Lounge - High Street Phoenix Lower Parel","High Street Phoenix Mall , Senapati Bapat Marg",,"Lower Parel","Mumbai","400013","18.9961651","72.8265085","Maharashtra",,,"1","1","1","1","1","1","1",NULL,,"02267734949","1232","2015-11-05","Y",NULL,NULL,NULL,NULL,NULL,NULL
"345","Marks & Spencer - High Street Phoenix Lower Parel","High Street Phoenix Mall , Senapati Bapat Marg",,"Lower Parel","Mumbai","400013","18.9961651","72.8265085","Maharashtra",,,"1","1","1","1","1","1","1",NULL,,"02266669807","1233","2015-11-05","Y",NULL,NULL,NULL,NULL,NULL,NULL
"346","McDonald's - High Street Phoenix Lower Parel","High Street Phoenix Mall , Senapati Bapat Marg",,"Lower Parel","Mumbai","400013","18.9961651","72.8265085","Maharashtra",,,"1","1","1","1","1","1","1",NULL,,"02266000666","1150","2015-11-05","Y",NULL,NULL,NULL,NULL,NULL,NULL
"347","Metro Shoes - High Street Phoenix Lower Parel","High Street Phoenix Mall , Senapati Bapat Marg",,"Lower Parel","Mumbai","400013","18.9961651","72.8265085","Maharashtra",,,"1","1","1","1","1","1","1",NULL,,"02224901071","1158","2015-11-05","Y",NULL,NULL,NULL,NULL,NULL,NULL
"348","Noodle Bar - High Street Phoenix Lower Parel","High Street Phoenix Mall , Senapati Bapat Marg",,"Lower Parel","Mumbai","400013","18.9961651","72.8265085","Maharashtra",,,"1","1","1","1","1","1","1",NULL,,"02224963999","1234","2015-11-05","Y",NULL,NULL,NULL,NULL,NULL,NULL
"349","Nyassa - High Street Phoenix Lower Parel","High Street Phoenix Mall , Senapati Bapat Marg",,"Lower Parel","Mumbai","400013","18.9961651","72.8265085","Maharashtra",,,"1","1","1","1","1","1","1",NULL,,"02224910090","1212","2015-11-05","Y",NULL,NULL,NULL,NULL,NULL,NULL
"350","Omved - High Street Phoenix Lower Parel","High Street Phoenix Mall , Senapati Bapat Marg",,"Lower Parel","Mumbai","400013","18.9961651","72.8265085","Maharashtra",,,"1","1","1","1","1","1","1",NULL,,"02240048218","1235","2015-11-05","Y",NULL,NULL,NULL,NULL,NULL,NULL
"351","pantaloons - High Street Phoenix Lower Parel","High Street Phoenix Mall , Senapati Bapat Marg",,"Lower Parel","Mumbai","400013","18.9961651","72.8265085","Maharashtra",,,"1","1","1","1","1","1","1",NULL,,"02230034848","1155","2015-11-05","Y",NULL,NULL,NULL,NULL,NULL,NULL
"352","Pepe Jeans London - High Street Phoenix Lower Parel","High Street Phoenix Mall , Senapati Bapat Marg",,"Lower Parel","Mumbai","400013","18.9961651","72.8265085","Maharashtra",,,"1","1","1","1","1","1","1",NULL,,"02224985020","1236","2015-11-05","Y",NULL,NULL,NULL,NULL,NULL,NULL
"353","PVR Cinemas - High Street Phoenix Lower Parel","High Street Phoenix Mall , Senapati Bapat Marg",,"Lower Parel","Mumbai","400013","18.9961651","72.8265085","Maharashtra",,,"1","1","1","1","1","1","1",NULL,,"8800900009","1186","2015-11-05","Y",NULL,NULL,NULL,NULL,NULL,NULL
"354","PYLONES - High Street Phoenix Lower Parel","High Street Phoenix Mall , Senapati Bapat Marg",,"Lower Parel","Mumbai","400013","18.9961651","72.8265085","Maharashtra",,,"1","1","1","1","1","1","1",NULL,,,"1237","2015-11-05","Y",NULL,NULL,NULL,NULL,NULL,NULL
"355","Quiksilver - High Street Phoenix Lower Parel","High Street Phoenix Mall , Senapati Bapat Marg",,"Lower Parel","Mumbai","400013","18.9961651","72.8265085","Maharashtra",,,"1","1","1","1","1","1","1",NULL,,"02266345011","1238","2015-11-05","Y",NULL,NULL,NULL,NULL,NULL,NULL
"356","remanika - High Street Phoenix Lower Parel","High Street Phoenix Mall , Senapati Bapat Marg",,"Lower Parel","Mumbai","400013","18.9961651","72.8265085","Maharashtra",,,"1","1","1","1","1","1","1",NULL,,,"1239","2015-11-05","Y",NULL,NULL,NULL,NULL,NULL,NULL
"357","Rhysetta - High Street Phoenix Lower Parel","High Street Phoenix Mall , Senapati Bapat Marg",,"Lower Parel","Mumbai","400013","18.9961651","72.8265085","Maharashtra",,,"1","1","1","1","1","1","1",NULL,,"02240048187","1240","2015-11-05","Y",NULL,NULL,NULL,NULL,NULL,NULL
"358","Simply Potatoes - High Street Phoenix Lower Parel","High Street Phoenix Mall , Senapati Bapat Marg",,"Lower Parel","Mumbai","400013","18.9961651","72.8265085","Maharashtra",,,"1","1","1","1","1","1","1",NULL,,,"1241","2015-11-05","Y",NULL,NULL,NULL,NULL,NULL,NULL
"359","Smoke House Deli - High Street Phoenix Lower Parel","High Street Phoenix Mall , Senapati Bapat Marg",,"Lower Parel","Mumbai","400013","18.9961651","72.8265085","Maharashtra",,,"1","1","1","1","1","1","1",NULL,,"02265619618","1242","2015-11-05","Y",NULL,NULL,NULL,NULL,NULL,NULL
"360","Spaghetti Kitchen - High Street Phoenix Lower Parel","High Street Phoenix Mall , Senapati Bapat Marg",,"Lower Parel","Mumbai","400013","18.9961651","72.8265085","Maharashtra",,,"1","1","1","1","1","1","1",NULL,,"02224962333","1177","2015-11-05","Y",NULL,NULL,NULL,NULL,NULL,NULL
"361","Spykar - High Street Phoenix Lower Parel","High Street Phoenix Mall , Senapati Bapat Marg",,"Lower Parel","Mumbai","400013","18.9961651","72.8265085","Maharashtra",,,"1","1","1","1","1","1","1",NULL,,"02266611383","1161","2015-11-05","Y",NULL,NULL,NULL,NULL,NULL,NULL
"362","Starbucks Coffee - High Street Phoenix Lower Parel","High Street Phoenix Mall , Senapati Bapat Marg",,"Lower Parel","Mumbai","400013","18.9961651","72.8265085","Maharashtra",,,"1","1","1","1","1","1","1",NULL,,,"1243","2015-11-05","Y",NULL,NULL,NULL,NULL,NULL,NULL
"363","The Body Shop - High Street Phoenix Lower Parel","High Street Phoenix Mall , Senapati Bapat Marg",,"Lower Parel","Mumbai","400013","18.9961651","72.8265085","Maharashtra",,,"1","1","1","1","1","1","1",NULL,,"02266120071","1244","2015-11-05","Y",NULL,NULL,NULL,NULL,NULL,NULL
"364","Chimp - High Street Phoenix Lower Parel","High Street Phoenix Mall , Senapati Bapat Marg",,"Lower Parel","Mumbai","400013","18.9961651","72.8265085","Maharashtra",,,"1","1","1","1","1","1","1",NULL,,"02264522996","1245","2015-11-05","Y",NULL,NULL,NULL,NULL,NULL,NULL
"365","The Irish House - High Street Phoenix Lower Parel","High Street Phoenix Mall , Senapati Bapat Marg",,"Lower Parel","Mumbai","400013","18.9961651","72.8265085","Maharashtra",,,"1","1","1","1","1","1","1",NULL,,"02243471111","1187","2015-11-05","Y",NULL,NULL,NULL,NULL,NULL,NULL
"366","The St. Regis Mumbai - High Street Phoenix Lower Parel","High Street Phoenix Mall , Senapati Bapat Marg",,"Lower Parel","Mumbai","400013","18.9961651","72.8265085","Maharashtra",,,"1","1","1","1","1","1","1",NULL,,"02261628000","1246","2015-11-05","Y",NULL,NULL,NULL,NULL,NULL,NULL
"367","Tresmode - High Street Phoenix Lower Parel","High Street Phoenix Mall , Senapati Bapat Marg",,"Lower Parel","Mumbai","400013","18.9961651","72.8265085","Maharashtra",,,"1","1","1","1","1","1","1",NULL,,"02224913515","1247","2015-11-05","Y",NULL,NULL,NULL,NULL,NULL,NULL
"368","Tryst - High Street Phoenix Lower Parel","High Street Phoenix Mall , Senapati Bapat Marg",,"Lower Parel","Mumbai","400013","18.9961651","72.8265085","Maharashtra",,,"1","1","1","1","1","1","1",NULL,,"02266614366","1248","2015-11-05","Y",NULL,NULL,NULL,NULL,NULL,NULL
"369","Van Heusen - High Street Phoenix Lower Parel","High Street Phoenix Mall , Senapati Bapat Marg",,"Lower Parel","Mumbai","400013","18.9961651","72.8265085","Maharashtra",,,"1","1","1","1","1","1","1",NULL,,"02266505871","1249","2015-11-05","Y",NULL,NULL,NULL,NULL,NULL,NULL
"370","W for Woman - High Street Phoenix Lower Parel","High Street Phoenix Mall , Senapati Bapat Marg",,"Lower Parel","Mumbai","400013","18.9961651","72.8265085","Maharashtra",,,"1","1","1","1","1","1","1",NULL,,"02240042026","1250","2015-11-05","Y",NULL,NULL,NULL,NULL,NULL,NULL
"371","Wrangler - High Street Phoenix Lower Parel","High Street Phoenix Mall , Senapati Bapat Marg",,"Lower Parel","Mumbai","400013","18.9961651","72.8265085","Maharashtra",,,"1","1","1","1","1","1","1",NULL,,"9821806474","1169","2015-11-05","Y",NULL,NULL,NULL,NULL,NULL,NULL
"372","ZODIAC - High Street Phoenix Lower Parel","High Street Phoenix Mall , Senapati Bapat Marg",,"Lower Parel","Mumbai","400013","18.9961651","72.8265085","Maharashtra",,,"1","1","1","1","1","1","1",NULL,,"02265749971","1174","2015-11-05","Y",NULL,NULL,NULL,NULL,NULL,NULL
"373","Mineral - High Street Phoenix Lower Parel","High Street Phoenix Mall , Ground Floor, Senapati Bapat Marg",,"Lower Parel","Mumbai","400013","18.9961651","72.8265085","Maharashtra",,,"1","1","1","1","1","1","1",NULL,,,"1251","2015-11-05","Y",NULL,NULL,NULL,NULL,NULL,NULL
"374","Accessorize - High Street Phoenix Lower Parel","High Street Phoenix Mall , Ground Floor, Senapati Bapat Marg",,"Lower Parel","Mumbai","400013","18.9961651","72.8265085","Maharashtra",,,"1","1","1","1","1","1","1",NULL,,"02266349966","1129","2015-11-05","Y",NULL,NULL,NULL,NULL,NULL,NULL
"375","adidas - High Street Phoenix Lower Parel","High Street Phoenix Mall , Ground Floor, Senapati Bapat Marg",,"Lower Parel","Mumbai","400013","18.9961651","72.8265085","Maharashtra",,,"1","1","1","1","1","1","1",NULL,,,"1252","2015-11-05","Y",NULL,NULL,NULL,NULL,NULL,NULL
"376","Allen Solly - High Street Phoenix Lower Parel","High Street Phoenix Mall , Ground Floor, Senapati Bapat Marg",,"Lower Parel","Mumbai","400013","18.9961651","72.8265085","Maharashtra",,,"1","1","1","1","1","1","1",NULL,,"02267431522","1145","2015-11-05","Y",NULL,NULL,NULL,NULL,NULL,NULL
